empty_slots,free_bikes,id,latitude,longitude,name,timestamp,extra.address,extra.altitude,extra.ebikes,extra.has_ebikes,extra.last_updated,extra.normal_bikes,extra.payment,extra.payment-terminal,extra.renting,extra.returning,extra.slots,extra.uid,extra.post_code
1,18,fb337bbed72e2be090071e199899b2be,43.665269,-79.319796,Queen St E / Woodward Ave,2024-08-03T19:09:00.502000Z,Queen St E / Woodward Ave,0.0,0,True,1722711993,18,"['key', 'transitcard', 'creditcard', 'phone']",True,1,1,19,7303,
14,1,4ff88d5880e71aa40d34cfe5d09b0ca7,43.67142,-79.445947,Primrose Ave / Davenport Rd,2024-08-03T19:09:00.524000Z,Primrose Ave / Davenport Rd,0.0,0,True,1722711972,1,"['key', 'transitcard', 'creditcard', 'phone']",True,1,1,15,7301,
11,12,a09c67c0b419654d907c9134b108e328,43.666224,-79.317693,Queen St E / Rhodes Ave,2024-08-03T19:09:00.612000Z,Queen St. E / Rhodes Ave.,0.0,1,True,1722711968,11,"['key', 'transitcard', 'creditcard', 'phone']",True,1,1,23,7309,
32,5,d6a9daee68070a8b106cfb598d81308c,43.653236,-79.376716,Bond St / Queen St E,2024-08-03T19:09:00.689000Z,Bond St / Queen St E,0.0,1,True,1722712044,4,"['key', 'transitcard', 'creditcard', 'phone']",True,1,1,37,7045,
32,3,8f8af40d9388c8a3962559e8681d3db7,43.663722,-79.380288,Church St / Alexander St,2024-08-03T19:09:00.696000Z,Church St / Alexander St,0.0,0,True,1722712001,3,"['key', 'transitcard', 'creditcard', 'phone']",True,1,1,35,7044,
18,7,5a441560e262305d1934fb3ada5a9517,43.657763,-79.389165,University Ave / Gerrard St W (East Side),2024-08-03T19:09:00.705000Z,University Ave / Gerrard St W,0.0,0,True,1722712122,7,"['key', 'transitcard', 'creditcard', 'phone']",True,1,1,25,7047,
21,0,18ea490ab3ca4d10e2927308416edbef,43.656729,-79.382736,Edward St / Yonge St,2024-08-03T19:09:00.717000Z,Edward St / Yonge St,,0,True,1722712021,0,"['key', 'transitcard', 'creditcard', 'phone']",True,1,1,23,7041,
8,6,b7850948607474362d3728f19a77fdff,43.664467,-79.414783,Euclid Ave / Bloor St W,2024-08-03T19:09:00.728000Z,Euclid Ave / Bloor St W,0.0,1,True,1722712117,5,"['key', 'transitcard', 'creditcard', 'phone']",True,1,1,19,7040,
2,21,7ffd06e0207f80fe1ff6b5ae0bb0544c,43.675492,-79.388858,Yonge St / Aylmer Ave,2024-08-03T19:09:00.736000Z,Yonge St / Aylmer Ave,0.0,1,True,1722712024,20,"['key', 'transitcard', 'creditcard', 'phone']",True,1,1,23,7128,
10,0,17fadbdc5848036c8485099bbf517294,43.674991,-79.396273,Davenport Rd / Avenue Rd,2024-08-03T19:09:00.744000Z,Davenport Rd / Avenue Rd,0.0,0,True,1722711999,0,"['key', 'transitcard', 'creditcard', 'phone']",True,1,1,11,7129,
12,4,843dcb87ce2ddb002d2b2900a5418355,43.671944,-79.387778,Yonge St / Yorkville Ave,2024-08-03T19:09:00.746000Z,Yonge St / Yorkville Ave,0.0,0,True,1722712095,4,"['key', 'transitcard', 'creditcard', 'phone']",True,1,1,17,7126,
4,15,438406694750984faa317bc6b1f3f909,43.662365,-79.351104,Dundas St E / Broadview Ave,2024-08-03T19:09:00.768000Z,Dundas St E / Broadview Ave,0.0,0,True,1722711955,15,"['key', 'transitcard', 'creditcard', 'phone']",True,1,1,19,7124,
14,31,41c3e6d3bf3bd993e7d56e22084ab5ee,43.646144,-79.377962,Front St W / Yonge St (Hockey Hall of Fame),2024-08-03T19:09:00.777000Z,Front St W / Yonge St (Hockey Hall of Fame),0.0,2,True,1722712026,29,"['key', 'transitcard', 'creditcard', 'phone']",True,1,1,47,7048,
4,6,c95712a6fe0babf73cb9da2c05889749,43.663993,-79.358534,Gerrard St E / River St,2024-08-03T19:09:00.778000Z,Gerrard St E / River St,0.0,0,True,1722711978,6,"['key', 'transitcard', 'creditcard', 'phone']",True,1,1,11,7120,
26,1,2aedc79960408d746f43fb1d91bf7030,43.657266,-79.374756,Jarvis St / Dundas St E,2024-08-03T19:09:00.784000Z,Jarvis St / Dundas St E,0.0,0,True,1722712109,1,"['key', 'transitcard', 'creditcard', 'phone']",True,1,1,27,7121,
14,0,77f9f2420581968255251d9f26c78024,43.673939,-79.441159,Regal Rd / Dufferin St,2024-08-03T19:09:01.182000Z,Regal Rd / Dufferin St,0.0,0,True,1722712022,0,"['key', 'transitcard', 'creditcard', 'phone']",True,1,1,15,7347,
1,8,7461a94289f2956b380e5b7684b56a1e,43.657991,-79.340075,Morse St / Eastern Ave,2024-08-03T19:09:01.208000Z,Morse St / Eastern Ave,0.0,0,True,1722711998,8,"['key', 'transitcard', 'creditcard', 'phone']",True,1,1,11,7342,
4,18,69dc0257a4d3a1dcd5af06dc3b4eed8c,43.66745,-79.329408,Alton Ave / Dundas St E (Greenwood Park),2024-08-03T19:09:01.210000Z,Alton Ave / Dundas St E (Greenwood Park),0.0,1,True,1722712054,17,"['key', 'transitcard', 'creditcard', 'phone']",True,1,1,23,7343,
8,7,365a0f49bf1c9b42c35b531688b9fed9,43.672453,-79.338259,Blake St / Boultbee Ave,2024-08-03T19:09:01.212000Z,Blake St / Boultbee Ave,0.0,1,True,1722711984,6,"['key', 'transitcard', 'creditcard', 'phone']",True,1,1,15,7340,
4,10,49021f20833894e3dbfaea4fb6e7a9dc,43.6592088,-79.3348396,Eastern Ave / Winnifred Ave,2024-08-03T19:09:01.220000Z,Eastern Ave / Winnifred Ave,0.0,1,True,1722712093,9,"['key', 'transitcard', 'creditcard', 'phone']",True,1,1,14,7341,
22,0,3910976dfd5888140602a42b14637022,43.689211,-79.35438,Gamble Ave / Broadview Ave,2024-08-03T19:09:01.227000Z,Gamble Ave / Broadview Ave,0.0,0,True,1722712020,0,"['key', 'transitcard', 'creditcard', 'phone']",True,1,1,23,7349,
10,5,1fe2e0ad1678ffaf965b10e03a08aaf2,43.656927,-79.378497,111 Bond St (North of Dundas St E)  - SMART,2024-08-03T19:09:01.261000Z,111 Bond St (North of Dundas St E),0.0,0,True,1722712014,5,"['key', 'transitcard', 'phone']",False,1,1,15,7268,
14,2,e565aef96d6d5fce5279ef6f24b9ce69,43.658295,-79.372346,Dundas St E / Pembroke St - SMART,2024-08-03T19:09:01.273000Z,Dundas St E / Pembroke St,0.0,0,True,1722712123,2,"['key', 'transitcard', 'phone']",False,1,1,16,7267,
18,1,c765943cac057b6cac0946eff428bf5b,43.6940155,-79.2889842,Victoria Park Subway Station - SMART,2024-08-03T19:09:01.282000Z,Victoria Park Subway Station,0.0,0,True,1722712049,1,"['key', 'transitcard', 'phone']",False,1,1,20,7266,
16,0,e0dec8b8f5ed285bfbd952bb253084f4,43.6809164,-79.4229684,Wychwood Ave / Benson Ave - SMART,2024-08-03T19:09:01.298000Z,Wychwood Ave / Benson Ave,0.0,0,True,1722712073,0,"['key', 'transitcard', 'phone']",False,1,1,16,7262,
15,0,5ee5f79fc51737623d425310eb0bf02b,43.6910667,-79.39535,Lawton Blvd / Yonge St,2024-08-03T19:09:01.415000Z,Lawton Blvd / Yonge St,0.0,0,True,1722712052,0,"['key', 'transitcard', 'creditcard', 'phone']",True,1,1,15,7379,
14,1,0daa4477ec313c30dc3036f4bd45e0ba,43.6975969,-79.39654,Yonge St / Davisville Ave,2024-08-03T19:09:07.298000Z,Yonge St / Davisville Ave,0.0,0,True,1722711957,1,"['key', 'transitcard', 'creditcard', 'phone']",True,1,1,15,7378,
35,8,e2911ec2b832c350dad0a8831a30d273,43.639832,-79.395954,Fort York  Blvd / Capreol Ct,2024-08-03T19:09:01.461000Z,Fort York  Blvd / Capreol Ct,0.0,2,True,1722712068,6,"['key', 'transitcard', 'creditcard', 'phone']",True,1,1,47,7000,
15,2,57ef343f4e12ae497e29c3693d922197,43.667333,-79.399429,St. George St / Bloor St W,2024-08-03T19:09:01.480000Z,St. George St / Bloor St W,0.0,0,True,1722712087,2,"['key', 'transitcard', 'creditcard', 'phone']",True,1,1,19,7002,
19,4,a0100ff8f210b72706e06b4c31a329fe,43.6480008,-79.383177,King St W / York St,2024-08-03T19:09:01.487000Z,King St W / York St,0.0,0,True,1722712063,4,"['key', 'transitcard', 'creditcard', 'phone']",True,1,1,23,7005,
15,1,75b9fc3e9bf42a5d26fa1393d9ce72ed,43.687999,-79.38906,Rosehill Ave / Avoca Ave - SMART,2024-08-03T19:09:01.517000Z,Rosehill Ave / Avoca Ave,0.0,1,True,1722712011,0,"['key', 'transitcard', 'phone']",False,1,1,16,7279,
8,7,d3e1a4057d9bf7c31c216017a0f1989b,43.6563889,-79.45166666666667,Bloor St W / Dundas St W,2024-08-03T19:09:01.545000Z,Bloor St W / Dundas St W,0.0,1,True,1722712001,6,"['key', 'transitcard', 'creditcard', 'phone']",True,1,1,15,7174,
15,4,8a4d335d5540e0c2132ffdb1def165f6,43.639179,-79.399595,Bathurst St / Fort York Blvd,2024-08-03T19:09:01.550000Z,Bathurst St / Fort York Blvd,0.0,0,True,1722711952,4,"['key', 'transitcard', 'creditcard', 'phone']",True,1,1,19,7176,
10,5,359ce82fbe9d1e9e9962321e62f6066f,43.6616667,-79.40138888888889,Spadina Ave / Willcocks St,2024-08-03T19:09:01.565000Z,Spadina Ave / Willcocks St,0.0,0,True,1722712109,5,"['key', 'transitcard', 'creditcard', 'phone']",True,1,1,15,7170,
17,1,4077bf05c083f50d09a52487fd234193,43.66666667,-79.45833333333334,Cariboo Ave / Railpath Trail,2024-08-03T19:09:01.569000Z,Cariboo St / Rail Path,0.0,0,True,1722712097,1,"['key', 'transitcard', 'creditcard', 'phone']",True,1,1,19,7173,
6,9,6aa469025f8c5ff029052fab35bca1f4,43.6576,-79.4032,College St / Major St,2024-08-03T19:09:01.624000Z,College St / Major St,0.0,1,True,1722711960,8,"['key', 'transitcard', 'creditcard', 'phone']",True,1,1,15,7078,
12,3,b086f4ccca33b1b976b40abe69b78d42,43.660694,-79.379052,McGill St / Church St,2024-08-03T19:09:01.630000Z,McGill St / Church St,0.0,0,True,1722712037,3,"['key', 'transitcard', 'creditcard', 'phone']",True,1,1,19,7079,
20,4,0fa15700b0d780b8f810ced06a01760d,43.636533,-79.395854,Queens Quay W / Dan Leckie Way,2024-08-03T19:09:01.642000Z,Queens Quay W / Dan Leckie Way,0.0,1,True,1722711985,3,"['key', 'transitcard', 'creditcard', 'phone']",True,1,1,26,7075,
1,10,ce6e330ba7f61e0453dc1567eaa02745,43.643667,-79.380414,25 York St – Union Station South,2024-08-03T19:09:01.659000Z,25 York St – Union Station South,0.0,0,True,1722712065,10,"['key', 'transitcard', 'creditcard', 'phone']",True,1,1,11,7070,
11,6,049c76540151608ec55bfcd0e1748f41,43.666233,-79.373327,161 Bleecker St (South of Wellesley),2024-08-03T19:09:01.662000Z,161 Bleecker St (South of Wellesley),0.0,0,True,1722712104,6,"['key', 'transitcard', 'creditcard', 'phone']",True,1,1,23,7071,
13,5,55a100afdce605b59cf4acbefcdf3213,43.640114,-79.393249,Spadina Ave / Fort York Blvd,2024-08-03T19:09:01.681000Z,Spadina Ave / Fort York Blvd,0.0,0,True,1722711976,5,"['key', 'transitcard', 'creditcard', 'phone']",True,1,1,23,7073,
5,10,422a936ddcb551dd9f26ec313a450057,43.653766,-79.4016759,Augusta Ave / Denison Sq,2024-08-03T19:09:01.756000Z,Augusta Ave / Denison Sq,0.0,0,True,1722711959,10,"['key', 'transitcard', 'creditcard', 'phone']",True,1,1,15,7189,
8,7,e38ee1ccd4c3964a5c0d308d29403b88,43.6538888888889,-79.4413888888889,Lansdowne Ave / Whytock Ave,2024-08-03T19:09:01.769000Z,Lansdowne Ave / Whytock Ave,0.0,0,True,1722712126,7,"['key', 'transitcard', 'creditcard', 'phone']",True,1,1,15,7181,
15,4,fc5b892aa82601e2374e8c1772dde569,43.6508333333333,-79.4430555555556,Sterling Rd / Dundas St W,2024-08-03T19:09:01.777000Z,Sterling Rd / Dundas St W,0.0,0,True,1722712128,4,"['key', 'transitcard', 'creditcard', 'phone']",True,1,1,19,7182,
8,1,452241fc4e912119f006a20b4b0099cf,43.6544915,-79.422634,Ossington Ave / College St,2024-08-03T19:09:01.790000Z,Ossington Ave / College St,0.0,0,True,1722712042,1,"['key', 'transitcard', 'creditcard', 'phone']",True,1,1,10,7184,
11,0,eb20e0b8c7c8bf1fc4157a3b715e2837,43.6543604,-79.4655296,High Park Subway Station,2024-08-03T19:09:01.831000Z,High Park Subway Station,0.0,0,True,1722711995,0,"['key', 'transitcard', 'creditcard', 'phone']",True,1,1,11,7221,
19,0,baedec3042f7094d0564ef8a1295e5d8,43.635932,-79.465083,Lake Shore Blvd W / Ellis Ave,2024-08-03T19:09:01.852000Z,Lake Shore Blvd W / Ellis Ave,0.0,0,True,1722712014,0,"['key', 'transitcard', 'creditcard', 'phone']",True,1,1,19,7220,
14,4,e4481e45d22462b01aca9513d8f5674e,43.634896,-79.467763,Lake Shore Blvd W / Windermere Ave,2024-08-03T19:09:01.897000Z,Lake Shore Blvd W / Windermere Ave,0.0,2,True,1722711998,2,"['key', 'transitcard', 'creditcard', 'phone']",True,1,1,19,7225,
13,16,0cf5a51077c51159b5d6c8ed5b4c9db5,43.6314,-79.4304,Martin Goodman Trail (Marilyn Bell Park),2024-08-03T19:09:01.936000Z,Martin Goodman Trail (Marilyn Bell Park),0.0,3,True,1722711963,13,"['key', 'transitcard', 'creditcard', 'phone']",True,1,1,31,7227,
16,2,59ef2a57efd0caf7727dbb6451bb8808,43.636731,-79.444966,Lake Shore Blvd W / The Boulevard Club,2024-08-03T19:09:01.960000Z,Lake Shore Blvd W / The Boulevard Club,0.0,0,True,1722711990,2,"['key', 'transitcard', 'creditcard', 'phone']",True,1,1,19,7226,
8,4,fe00988a883c9469b82d17221ef1824b,43.6534268,-79.4512787,Dundas St W / Roncesvalles Ave Green P -SMART,2024-08-03T19:09:01.980000Z,Dundas St W / Roncesvalles Green P,0.0,0,True,1722712024,4,"['key', 'transitcard', 'phone']",False,1,1,12,7229,
15,0,f376aecd6bb0d97d5d1580e9537017dd,43.7112153,-79.39894,Erskine Ave / Yonge St SMART,2024-08-03T19:09:02.001000Z,Erskine Ave / Yonge St SMART,0.0,0,True,1722712121,0,"['key', 'transitcard', 'phone']",False,1,1,16,7380,
15,1,d04f206f6afecb72f5821586d56f5071,43.655227,-79.39201,D'Arcy St / McCaul St - SMART,2024-08-03T19:09:02.014000Z,"D'Arcy St, /McCaul St. SMART",0.0,0,True,1722712034,1,"['key', 'transitcard', 'phone']",False,1,1,16,7386,
8,3,d7227eafd0ff8024632b2c9cef1f209c,43.685167,-79.34962,Mortimer Ave / Carlaw Ave SMART,2024-08-03T19:09:02.029000Z,Mortimer Ave / Carlaw Ave SMART,0.0,3,True,1722712107,0,"['key', 'transitcard', 'phone']",False,1,1,12,7387,
2,7,0ec9fc6c92f35e65f603cd6e7c550f1f,43.6704537,-79.39014,Cumberland St / Bay St SMART,2024-08-03T19:09:02.038000Z,Cumberland Ave / Bay St SMART,0.0,0,True,1722712120,7,"['key', 'transitcard', 'phone']",False,1,1,9,7384,
8,6,0ff8f31be644b9e2af6d38b89bf42c07,43.641389,-79.404444,Niagara St / Tecumseth St,2024-08-03T19:09:02.096000Z,Niagara St / Tecumseth St,0.0,0,True,1722712049,6,"['key', 'transitcard', 'creditcard', 'phone']",True,1,1,15,7122,
13,6,bb30daddc7221e19cffecf3ac108f28c,43.6545174,-79.3895315,Dundas St W / St. Patrick St,2024-08-03T19:09:02.269000Z,Dundas St W / St. Patrick St,0.0,0,True,1722712060,6,"['key', 'transitcard', 'creditcard', 'phone']",True,1,1,19,7257,
9,6,f52bcef41a84669da7a468cfc4531356,43.665846,-79.404998,Robert St / Bloor St W - SMART,2024-08-03T19:09:02.285000Z,Robert St / Bloor St W,0.0,0,True,1722712023,6,"['key', 'transitcard', 'phone']",False,1,1,18,7252,
2,8,05d7abba295be4af9e74ca3ec241ebd7,43.671349,-79.29451,Queen St E / Hammersmith Ave,2024-08-03T19:09:02.292000Z,Queen St E / Hammersmith Ave,0.0,0,True,1722711997,8,"['key', 'transitcard', 'creditcard', 'phone']",True,1,1,11,7315,
9,5,973748f7f27229b41ca0d2a96dea777e,43.667208,-79.312315,Queen St. E / Eastern Ave,2024-08-03T19:09:02.300000Z,Queen St. E / Eastern Ave,0.0,2,True,1722711970,3,"['key', 'transitcard', 'creditcard', 'phone']",True,1,1,15,7314,
2,16,e5a7fc18db4989ecaf70a7e98866faee,43.669328,-79.288949,Hubbard Blvd / Balsam Av,2024-08-03T19:09:02.304000Z,Hubbard Blvd / Balsam Av,0.0,4,True,1722711966,12,"['key', 'transitcard', 'creditcard', 'phone']",True,1,1,19,7317,
5,10,c7cbc921ca5b8310e7218ca5669ad83f,43.672571,-79.289,Queen St. E / Spruce Hill Rd.,2024-08-03T19:09:02.309000Z,Queen St. E / Spruce Hill Rd.,0.0,1,True,1722711964,9,"['key', 'transitcard', 'creditcard', 'phone']",True,1,1,15,7316,
12,7,d1de2ddc0ea8a90d00ff717ad60a2f23,43.638497,-79.39192,Lower Spadina Ave / Lake Shore Blvd W,2024-08-03T19:09:02.324000Z,Lower Spadina Ave / Lake Shore Blvd W,0.0,0,True,1722711998,7,"['key', 'transitcard', 'creditcard', 'phone']",True,1,1,19,7259,
7,7,61291082be03c77f92f883b95292557a,43.662771,-79.315223,Lower Coxwell Ave /  Lake Shore Blvd E,2024-08-03T19:09:02.340000Z,Coxwell Ave /  Lake Shore Blvd E,0.0,0,True,1722711993,7,"['key', 'transitcard', 'creditcard', 'phone']",True,1,1,15,7313,
9,1,d60491c58bb95d6ddefb1f1b1ac3f56f,43.66852,-79.363525,Amelia St / Sumach St,2024-08-03T19:09:02.344000Z,Amelia St. / Sumach St.,0.0,0,True,1722712103,1,"['key', 'transitcard', 'creditcard', 'phone']",True,1,1,11,7312,
3,10,d81d4d6231b9da01ba7f3d6e50728ca8,43.652473,-79.401456,Augusta Ave / Dundas St W,2024-08-03T19:09:02.528000Z,Augusta Ave / Dundas St W,0.0,0,True,1722712010,10,"['key', 'transitcard', 'creditcard', 'phone']",True,1,1,15,7032,
16,15,d0a8478c786cb2480de4fcecda844781,43.643975,-79.419576,Queen St W / Ossington Ave,2024-08-03T19:09:02.552000Z,Queen St W / Ossington Ave,0.0,0,True,1722711957,15,"['key', 'transitcard', 'creditcard', 'phone']",True,1,1,31,7035,
4,14,1053161189e46ea1c3122c94b644bc9d,43.651318,-79.36023,Trinity St /Front St E,2024-08-03T19:09:02.556000Z,Trinity St / Front St E,0.0,1,True,1722712027,13,"['key', 'transitcard', 'creditcard', 'phone']",True,1,1,19,7036,
18,12,02feaaef65cff4671fb1935179895659,43.656094,-79.381484,Dundas St W / Yonge St,2024-08-03T19:09:02.574000Z,Dundas St W / Yonge St,0.0,0,True,1722711982,12,"['key', 'transitcard', 'creditcard', 'phone']",True,1,1,31,7038,
6,2,b076c918fa10b274340bcdb0f0bca1a6,43.670318,-79.405181,Kendal Ave / Spadina Rd,2024-08-03T19:09:02.595000Z,Kendal Ave / Spadina Rd,0.0,0,True,1722711998,2,"['key', 'transitcard', 'creditcard', 'phone']",True,1,1,9,7132,
18,2,dc268bf6d12c7311db0b5b61b3304b03,43.639444,-79.423611,King St W / Joe Shuster Way,2024-08-03T19:09:02.940000Z,King St W / Joe Shuster Way,0.0,0,True,1722712054,2,"['key', 'transitcard', 'creditcard', 'phone']",True,1,1,23,7148,
10,1,0abdfc3177000757dcd71bd4c8b479ee,43.67,-79.42083333333333,Yarmouth Rd / Christie St,2024-08-03T19:09:02.949000Z,Yarmouth Rd / Christie St,0.0,0,True,1722712082,1,"['key', 'transitcard', 'creditcard', 'phone']",True,1,1,11,7149,
8,6,37c32c09c594b83701b3b8f6e32db605,43.671389,-79.416389,Palmerston Ave / Vermont Ave,2024-08-03T19:09:02.957000Z,Palmerston Ave / Vermont Ave,0.0,0,True,1722711955,6,"['key', 'transitcard', 'creditcard', 'phone']",True,1,1,15,7144,
18,1,8536b57314846d3b42645c0023e6e60d,43.68,-79.42500000000001,Christie St / Benson Ave (Wychwood Barns),2024-08-03T19:09:02.959000Z,Christie St / Benson Ave (Wychwood Barns),0.0,1,True,1722712071,0,"['key', 'transitcard', 'creditcard', 'phone']",True,1,1,19,7146,
10,5,8db5b143b08ea1fed85f0702fcfe01ec,43.6394444,-79.42527777777778,King St W / Fraser Ave,2024-08-03T19:09:02.962000Z,King St W / Fraser Ave,0.0,0,True,1722712017,5,"['key', 'transitcard', 'creditcard', 'phone']",True,1,1,15,7147,
15,0,879f0d4ef4403ab902e541528bf329f6,43.675791,-79.40698,Macpherson Ave / Spadina Rd,2024-08-03T19:09:02.977000Z,Macpherson Ave / Spadina Rd,0.0,0,True,1722712093,0,"['key', 'transitcard', 'creditcard', 'phone']",True,1,1,15,7140,
9,6,c497911a9c04bebbbc32e5211c081f85,43.675556,-79.410278,Bridgman Ave / Kendal Ave,2024-08-03T19:09:02.981000Z,Bridgeman Ave / Kendal Ave,0.0,0,True,1722712067,6,"['key', 'transitcard', 'creditcard', 'phone']",True,1,1,15,7141,
13,1,2e19220f1e64559e88f3c48b3ebf2916,43.674444,-79.414722,Bridgman Ave / Bathurst St,2024-08-03T19:09:02.984000Z,Bridgeman Ave / Bathurst St,0.0,0,True,1722712100,1,"['key', 'transitcard', 'creditcard', 'phone']",True,1,1,15,7142,
14,0,afa3ff2218a5d1817934c7c7c7bb5d19,43.671513,-79.408317,Kendal Ave / Bernard Ave,2024-08-03T19:09:02.995000Z,Kendal Ave / Bernard Ave,0.0,0,True,1722712020,0,"['key', 'transitcard', 'creditcard', 'phone']",True,1,1,15,7143,
16,3,ddba9c631e11fbae48e2be60289f60c2,43.6783213,-79.35822,Pretoria Ave / Broadview Ave,2024-08-03T19:09:03.298000Z,Pretoria Av / Broadview Av,0.0,0,True,1722712059,3,"['key', 'transitcard', 'creditcard', 'phone']",True,1,1,19,7351,
22,0,a7ca61373064c6581461132f1ae050de,43.6848652,-79.356602,Broadview Ave / Westwood Ave,2024-08-03T19:09:03.309000Z,Broadview Ave/ Westwood Ave,0.0,0,True,1722711989,0,"['key', 'transitcard', 'creditcard', 'phone']",True,1,1,23,7350,
14,3,62a1c39596c3d512dfa04f1d29b81035,43.68395,-79.347046,Fulton Ave / Pape Ave,2024-08-03T19:09:03.321000Z,Fulton Ave / Pape Ave,0.0,0,True,1722711976,3,"['key', 'transitcard', 'creditcard', 'phone']",True,1,1,19,7353,
12,7,b960be1eba97f5aefc6ad39ecc93cb11,43.690537,-79.341307,Cosburn Ave / Donlands Ave,2024-08-03T19:09:03.332000Z,Cosburn Ave / Donlands Ave,0.0,2,True,1722712045,5,"['key', 'transitcard', 'creditcard', 'phone']",True,1,1,19,7352,
14,1,908b17c0d06011373777bace0a3cd74c,43.704461,-79.423122,Beltline Trail / Chaplin Cres,2024-08-03T19:09:03.341000Z,Beltline Trail / Chaplin Cres.,0.0,1,True,1722712080,0,"['key', 'transitcard', 'creditcard', 'phone']",True,1,1,15,7355,
5,13,d2ce6ae839b7df2c912ab140253a5574,43.659195,-79.329196,Lake Shore Blvd E / Leslie St,2024-08-03T19:09:03.350000Z,Lake Shore Blvd E / Leslie St,0.0,1,True,1722712127,12,"['key', 'transitcard', 'creditcard', 'phone']",True,1,1,19,7357,
22,0,72de8a8e0a0966768f8115d755532e4c,43.682645,-79.377557,Rosedale Park (20 Scholfield Ave),2024-08-03T19:09:03.372000Z,Rosedale Park (20 Schofield Ave),0.0,0,True,1722712128,0,"['key', 'transitcard', 'creditcard', 'phone']",True,1,1,23,7359,
4,11,4c18c44e6f93e57321d327124945cb19,43.6475,-79.43305555555555,Mary McCormick Rec Centre (Sheridan Ave),2024-08-03T19:09:03.446000Z,Mary McCormick Rec Centre (Sheridan Ave),0.0,0,True,1722712059,11,"['key', 'transitcard', 'creditcard', 'phone']",True,1,1,15,7210,
15,3,071b427d1f3f600d6b9f35ca6576ebe2,43.671526,-79.44874,Davenport Rd / Lansdowne Ave,2024-08-03T19:09:03.609000Z,Davenport Rd / Landsdowne Rd,0.0,1,True,1722712049,2,"['key', 'transitcard', 'creditcard', 'phone']",True,1,1,19,7326,
1,15,08b57a79795bbd49a15e4a3692ee924f,43.6452972,-79.3827914,Front St W / University Ave (2),2024-08-03T19:09:03.636000Z,Front St W / University Ave (2),0.0,2,True,1722712127,13,"['key', 'transitcard', 'creditcard', 'phone']",True,1,1,18,7321,
9,8,fe806cf907683c67f4d2899eb4123f00,43.6452091,-79.3960744,457 King St W,2024-08-03T19:09:03.654000Z,457 King St W.,0.0,1,True,1722712071,7,"['key', 'transitcard', 'creditcard', 'phone']",True,1,1,19,7323,
14,4,dad51db43939490092b81d8cea72e018,43.6555556,-79.43361111111112,Dufferin St / Sylvan Av (Dufferin Grove Park),2024-08-03T19:09:03.660000Z,Dufferin St / Sylvan Av (Dufferin Grove Park),0.0,0,True,1722712110,4,"['key', 'transitcard', 'creditcard', 'phone']",True,1,1,19,7150,
3,15,d06ed2c21f6ff4e4cbc77b64e65bd801,43.645665,-79.415345,Crawford St / Queen St W,2024-08-03T19:09:03.667000Z,Crawford St / Queen St W,0.0,1,True,1722712038,14,"['key', 'transitcard', 'creditcard', 'phone']",True,1,1,19,7329,
24,3,789f216e52af17d73307365401bb9109,43.660207,-79.361275,Dundas St E / Regent Park Blvd,2024-08-03T19:09:03.679000Z,Dundas St E / Regent Park Blvd,0.0,1,True,1722712034,2,"['key', 'transitcard', 'creditcard', 'phone']",True,1,1,27,7100,
13,11,9c5b6e6af1002ebba73b6be3039e78a2,43.648655,-79.367061,Lower Sherbourne St / The Esplanade,2024-08-03T19:09:03.686000Z,Lower Sherbourne St / The Esplanade,0.0,0,True,1722712029,11,"['key', 'transitcard', 'creditcard', 'phone']",True,1,1,27,7101,
1,1,4b5b510307e10e878321a5eaa419c976,43.6605603,-79.3437663,Jimmie Simpson Park (Queen St E),2024-08-03T19:09:03.706000Z,Jimmie Simpson Park (Queen St E),0.0,0,True,1722712042,1,"['key', 'transitcard', 'creditcard', 'phone']",True,1,1,4,7103,
5,10,ed77bb45e5a6964a4b94c780d5c21584,43.6561111,-79.36138888888888,Queen St E / Sackville St,2024-08-03T19:09:03.719000Z,Queen St E / Sackville St,0.0,0,True,1722712088,10,"['key', 'transitcard', 'creditcard', 'phone']",True,1,1,15,7105,
10,17,419d42f093b90ba03bd31b21039ff5f0,43.652219,-79.354455,Mill St / Tannery Rd,2024-08-03T19:09:03.725000Z,Mill St / Tannery Rd,0.0,1,True,1722712045,16,"['key', 'transitcard', 'creditcard', 'phone']",True,1,1,27,7106,
5,10,b3fca97a4a4308fefb648b6815e3907d,43.650279,-79.356832,Cherry St / Distillery Ln,2024-08-03T19:09:03.732000Z,Cherry St / Distillery Ln,0.0,0,True,1722712016,10,"['key', 'transitcard', 'creditcard', 'phone']",True,1,1,15,7107,
6,0,17b0d8ca1c69eca14d3173c15fa144e4,43.649147,-79.395504,Queen St W / Spadina Ave,2024-08-03T19:09:03.807000Z,Queen St W / Spadina Ave,0.0,0,True,1722711994,0,"['key', 'transitcard', 'creditcard', 'phone']",True,1,1,11,7069,
10,7,c4077147fd13aa009cb7f1a59b0f8178,43.662085,-79.397735,Willcocks St / St. George St,2024-08-03T19:09:03.827000Z,Willcocks St / St. George St,0.0,0,True,1722712097,7,"['key', 'transitcard', 'creditcard', 'phone']",True,1,1,17,7066,
9,6,b894ec8d0d8ab0f3a9bf708ee4c90d14,43.659575,-79.365769,Dundas St E / Parliament St,2024-08-03T19:09:03.836000Z,Dundas St E / Parliament St,0.0,0,True,1722712064,6,"['key', 'transitcard', 'creditcard', 'phone']",True,1,1,15,7065,
3,17,195c1a917f697ab4b4fb52431e921423,43.668456,-79.393899,Queen's Park / Bloor St W,2024-08-03T19:09:03.847000Z,Queen's Park / Bloor St W,0.0,1,True,1722712051,16,"['key', 'transitcard', 'creditcard', 'phone']",True,1,1,23,7063,
5,15,e67960ae2a91a3adf6adf65a92dfd09f,43.639052,-79.399792,Fort York Blvd / Bathurst St - SMART,2024-08-03T19:09:03.980000Z,Fort York Blvd / Bathurst St SMART,0.0,0,True,1722712070,15,"['key', 'transitcard', 'phone']",False,1,1,20,7366,
14,1,4b7f75302d4eec9130e1e486ba486571,43.6448617,-79.42822,Alma Ave / Gladstone Ave SMART,2024-08-03T19:09:03.987000Z,Alma Ave / Gladstone Ave SMART,0.0,1,True,1722711996,0,"['key', 'transitcard', 'phone']",False,1,1,15,7367,
3,9,1e01daecd9b52d95d82346c5c81d2ba0,43.660414,-79.415646,Harbord St / Clinton St,2024-08-03T19:09:04.135000Z,Harbord St / Clinton St,0.0,1,True,1722711988,8,"['key', 'transitcard', 'creditcard', 'phone']",True,1,1,15,7192,
8,1,82051b9dc79b4b401acc0872abc734a9,43.661975,-79.407896,Central Tech  (Harbord St),2024-08-03T19:09:04.140000Z,Central Tech (Harbord St),0.0,0,True,1722712124,1,"['key', 'transitcard', 'creditcard', 'phone']",True,1,1,11,7191,
8,2,4504736e6ccb393e9f89000f91479688,43.65905,-79.422988,Roxton Rd / Harbord St,2024-08-03T19:09:04.164000Z,Roxton Rd / Harbord St,0.0,0,True,1722712113,2,"['key', 'transitcard', 'creditcard', 'phone']",True,1,1,11,7196,
5,6,b4e20439535ceebae999cba2f02789eb,43.66,-79.4088888888889,Ulster St / Bathurst St,2024-08-03T19:09:04.172000Z,Ulster St / Bathurst St,0.0,3,True,1722711996,3,"['key', 'transitcard', 'creditcard', 'phone']",True,1,1,11,7195,
19,2,09007b5f868cd54be0f040f9a9a75c42,43.690564,-79.326319,Mortimer Ave / Coxwell Ave,2024-08-03T19:09:04.176000Z,Mortimer Ave / Coxwell Ave,0.0,2,True,1722711999,0,"['key', 'transitcard', 'creditcard', 'phone']",True,1,1,23,7194,
9,4,7f29cbdced0d217c129cc9648f1becbe,43.688325,-79.300463,Danforth Ave / Barrington Ave,2024-08-03T19:09:06.797000Z,Danforth Ave / Barrington Ave,0.0,2,True,1722712125,2,"['key', 'transitcard', 'creditcard', 'phone']",True,1,1,15,7083,
4,21,135f69ed3bde48aaf1d0006b4f080149,43.658938,-79.383518,College Park - Gerrard Entrance,2024-08-03T19:09:04.453000Z,College Park- Gerrard Entrance,0.0,1,True,1722712000,20,"['key', 'transitcard', 'creditcard', 'phone']",True,1,1,25,7389,
13,1,fe97ae335b31b6c455f340f397904d38,43.683378,-79.322961,Danforth Ave / Coxwell Ave,2024-08-03T19:09:04.497000Z,Danforth Ave / Coxwell Ave,0.0,0,True,1722712112,1,"['key', 'transitcard', 'creditcard', 'phone']",True,1,1,15,7088,
14,1,d8db167197846ff7cbe59c9a35aed587,43.6425636,-79.3762,12 Harbour St,2024-08-03T19:09:04.620000Z,12 Harbour St,0.0,1,True,1722711957,0,"['key', 'transitcard', 'creditcard', 'phone']",True,1,1,15,7383,
8,4,391a459d2ca6e2c8eefa90736b2e9142,43.6521,-79.4486,Howard Park Ave / Dundas St W - SMART,2024-08-03T19:09:04.635000Z,Howard Park Ave / Dundas St W,0.0,0,True,1722711954,4,"['key', 'transitcard', 'phone']",False,1,1,12,7247,
4,12,0ac5489c6a4750403c053598153880b0,43.633473,-79.425679,Dufferin Gate - SMART,2024-08-03T19:09:04.661000Z,Dufferin Gate,0.0,0,True,1722712076,12,"['key', 'transitcard', 'phone']",False,1,1,16,7244,
4,27,0e89e5d6c910f6df787cd9c903ade959,43.630254,-79.420317,Lake Shore Blvd W / Ontario Dr,2024-08-03T19:09:04.673000Z,Lake Shore Blvd W / Ontario Dr (Ontario Place),0.0,6,True,1722711969,21,"['key', 'transitcard', 'creditcard', 'phone']",True,1,1,35,7242,
20,14,d0d6832dcab19b3cb35c2474d2e8c088,43.662403,-79.423098,Bloor St W / Shaw St - SMART,2024-08-03T19:09:04.688000Z,Bloor St W / Shaw Ave,0.0,1,True,1722711992,13,"['key', 'transitcard', 'phone']",False,1,1,34,7240,
10,7,beb87ea54499f95a614653924c99b9c4,43.656945,-79.424911,Concord Ave / Dewson St,2024-08-03T19:09:04.703000Z,Concord Av / Dewson St,0.0,0,True,1722712040,7,"['key', 'transitcard', 'creditcard', 'phone']",True,1,1,17,7360,
18,0,d8c6779ffdcc8889412fd4c9b0a08c35,43.6817346,-79.4184725,Hocken Ave / Vaughan Rd,2024-08-03T19:09:04.713000Z,Hocken Ave./Vaughan Rd.,0.0,0,True,1722712062,0,"['key', 'transitcard', 'creditcard', 'phone']",True,1,1,19,7361,
18,0,fba4560a5641afdb69a97d04466ef788,43.683296,-79.418734,St Clair Ave W / Bathurst St.,2024-08-03T19:09:04.718000Z,St Clair Ave W / Bathurst St.,0.0,0,True,1722712076,0,"['key', 'transitcard', 'creditcard', 'phone']",True,1,1,19,7362,
0,18,a943462e1ee05f0073b647a5b787f81d,43.673831,-79.281455,Queen St E / Nursewood Rd,2024-08-03T19:09:04.736000Z,Queen St E / Nursewood Rd (Neville Park Loop),0.0,0,True,1722712034,18,"['key', 'transitcard', 'creditcard', 'phone']",True,1,1,18,7364,
3,17,e3c4ef5e47b905992ebcd262cc3df594,43.666325,-79.3014,Kewbeach Ave / Kenilworth Ave,2024-08-03T19:09:04.744000Z,Kew Beach Ave / Kenilworth Ave,0.0,0,True,1722712062,17,"['key', 'transitcard', 'creditcard', 'phone']",True,1,1,23,7365,
9,6,044fd938d016b91837e9b02be913b5c7,43.651145,-79.423742,Lakeview Ave / Harrison St (Green P) – SMART,2024-08-03T19:09:04.753000Z,Dovercourt Rd / Harrison St (Green P) - SMART,0.0,1,True,1722712051,5,"['key', 'transitcard', 'phone']",False,1,1,16,7249,
10,8,c8cc2df4c8343778481f7f7c53499df7,43.654905,-79.398448,Baldwin St / Spadina Ave - SMART,2024-08-03T19:09:04.762000Z,Baldwin Ave / Spadina Ave,0.0,1,True,1722712034,7,"['key', 'transitcard', 'phone']",False,1,1,20,7248,
1,7,2037c7d47c8b7babcd2c4a058a66a6c8,43.6571,-79.4056,College St / Borden St,2024-08-03T19:09:04.949000Z,College St / Borden St,0.0,0,True,1722712076,7,"['key', 'transitcard', 'creditcard', 'phone']",True,1,1,11,7023,
6,22,73555343619c6b9d1253029204bbd5cd,43.652823,-79.393388,Beverley St / Dundas St W,2024-08-03T19:09:05.036000Z,Beverley  St / Dundas St W,0.0,1,True,1722711970,21,"['key', 'transitcard', 'creditcard', 'phone']",True,1,1,31,7027,
11,1,d4c9a3af6604468422edfb03f56462db,43.665527,-79.387499,Bay St / St. Joseph St,2024-08-03T19:09:05.056000Z,Bay St / St. Joseph St,,0,True,1722712131,1,"['key', 'transitcard', 'creditcard', 'phone']",True,1,1,15,7026,
30,1,6e0b53806a9d068b042fa21bd67c5418,43.6582,-79.3768,Gould St / Mutual St,2024-08-03T19:09:05.105000Z,Gould St / Mutual St,,0,True,1722712066,1,"['key', 'transitcard', 'creditcard', 'phone']",True,1,1,31,7028,
3,8,c6f56ec0831b791abbce0992adba6318,43.671172,-79.354704,Riverdale Park North (Broadview Ave),2024-08-03T19:09:05.304000Z,Riverdale Park North (Broadview Ave),0.0,0,True,1722711997,8,"['key', 'transitcard', 'creditcard', 'phone']",True,1,1,15,7097,
11,3,3b2853992a1700739c8fa569801e1c48,43.677076,-79.35667,Danforth Ave / Ellerbeck St,2024-08-03T19:09:05.329000Z,Danforth Ave / Ellerbeck St,0.0,1,True,1722711999,2,"['key', 'transitcard', 'creditcard', 'phone']",True,1,1,14,7095,
20,3,a9f7723da0cc432f4d057e3ceede292e,43.678401,-79.346289,Danforth Ave / Gough Ave,2024-08-03T19:09:05.334000Z,Danforth Ave / Gough Ave,0.0,1,True,1722712022,2,"['key', 'transitcard', 'creditcard', 'phone']",True,1,1,24,7093,
13,4,79b67fbfd130d41c9162e805a9e755be,43.681991,-79.329455,Danforth Ave / Lamb Ave,2024-08-03T19:09:05.342000Z,Danforth Ave / Lamb Ave,0.0,2,True,1722712023,2,"['key', 'transitcard', 'creditcard', 'phone']",True,1,1,19,7090,
10,5,667cd54aa27ec06620753f3d19a78b3d,43.6422222,-79.41111111111111,King St W / Stafford St,2024-08-03T19:09:05.349000Z,King St W / Stafford St,0.0,0,True,1722712075,5,"['key', 'transitcard', 'creditcard', 'phone']",True,1,1,15,7158,
16,3,37b46f2e5573e69f5451dc09c0c14660,43.663808,-79.410491,Bathurst St / Lennox St,2024-08-03T19:09:05.381000Z,Bathurst St / Lennox St,0.0,1,True,1722711968,2,"['key', 'transitcard', 'creditcard', 'phone']",True,1,1,19,7155,
15,8,8db545a0135f7b92022fbdbbc75af6c4,43.6666667,-79.41166666666668,Bathurst Subway Station,2024-08-03T19:09:05.383000Z,Bathurst Subway Station,0.0,0,True,1722712022,8,"['key', 'transitcard', 'creditcard', 'phone']",True,1,1,23,7154,
10,6,78ac4436b3398ac55b47569863af6c41,43.6638889,-79.41888888888889,Bloor St W / Christie St,2024-08-03T19:09:05.392000Z,Bloor St W / Christie St,0.0,0,True,1722712052,6,"['key', 'transitcard', 'creditcard', 'phone']",True,1,1,19,7153,
10,0,6d45f03d18059ba5e61f0d44a0cea59d,43.661705,-79.425734,Ossington Ave / Bloor St W,2024-08-03T19:09:05.402000Z,Ossington Ave / Bloor St W,0.0,0,True,1722711987,0,"['key', 'transitcard', 'creditcard', 'phone']",True,1,1,11,7152,
14,3,cf1adac21d23e26855ea06278b5cd149,43.6686111,-79.42027777777778,Essex St / Christie St - SMART,2024-08-03T19:09:05.408000Z,Essex St / Christie St,0.0,0,True,1722712027,3,"['key', 'transitcard', 'creditcard', 'phone']",True,1,1,19,7151,
15,3,3863dd61e00ea66710f789ae4297a2d2,43.665327,-79.43235,Westmoreland Ave / Fernbank Ave,2024-08-03T19:09:05.596000Z,Westmoreland Ave / Fernbank Ave,0.0,1,True,1722712070,2,"['key', 'transitcard', 'creditcard', 'phone']",True,1,1,19,7296,
15,3,46bdd4a2b7715a9e32917b830777f17f,43.657343,-79.43112,Havelock St / Dufferin Park,2024-08-03T19:09:05.626000Z,Havelock St / Dufferin Park,0.0,0,True,1722712051,3,"['key', 'transitcard', 'creditcard', 'phone']",True,1,1,19,7297,
19,5,6ac9cdf0b92883715b404d41c779af0b,43.645324,-79.40345,Bathurst St / Adelaide St W,2024-08-03T19:09:05.638000Z,Bathurst St / Adelaide St W,0.0,0,True,1722712131,5,"['key', 'transitcard', 'creditcard', 'phone']",True,1,1,25,7298,
4,10,a0582ad73e21704a28197ee3c0aa4bcd,43.650256,-79.36163,Mill St / Parliament St,2024-08-03T19:09:05.658000Z,Mill St / Parliament St,0.0,1,True,1722712030,9,"['key', 'transitcard', 'creditcard', 'phone']",True,1,1,15,7299,
4,15,bc19a4e6924e29937e76c9e82b55584c,43.651111111111106,-79.4213888888889,Ossington Ave / Harrison St,2024-08-03T19:09:05.792000Z,Ossington Ave / Harrison St,0.0,4,True,1722712097,11,"['key', 'transitcard', 'creditcard', 'phone']",True,1,1,19,7209,
9,5,71debce521f35fd4e280e8ee1e2dd8cc,43.656296,-79.414663,80 Clinton St,2024-08-03T19:09:05.800000Z,80 Clinton St (North of College),0.0,1,True,1722712030,4,"['key', 'transitcard', 'creditcard', 'phone']",True,1,1,15,7208,
6,7,5dd14c8888280d1274f6ad3e04f6d6cd,43.651281,-79.411717,Claremont St / Dundas St W,2024-08-03T19:09:05.851000Z,Claremont St / Dundas St W,0.0,0,True,1722712040,7,"['key', 'transitcard', 'creditcard', 'phone']",True,1,1,13,7206,
12,1,d7bb48a755f69109f6584df0a207c9b2,43.65277778,-79.42972222,Rusholme Park Cres / College St,2024-08-03T19:09:05.861000Z,Rusholme Park Cres / College St,0.0,0,True,1722711980,1,"['key', 'transitcard', 'creditcard', 'phone']",True,1,1,15,7205,
4,14,e53f168eadc3a7e3b9704193c739cb12,43.655,-79.418889,College St / Crawford St,2024-08-03T19:09:05.869000Z,College St / Crawford St,0.0,0,True,1722712093,14,"['key', 'transitcard', 'creditcard', 'phone']",True,1,1,19,7204,
2,14,3e05658e4bcad33e9d606744235dadcc,43.663912,-79.327987,Queen St E / Alton Av,2024-08-03T19:09:06.050000Z,Queen St E / Alton Av,0.0,2,True,1722712088,12,"['key', 'transitcard', 'creditcard', 'phone']",True,1,1,19,7336,
11,4,ab92855299769ca50b1354e489b31a31,43.6462176,-79.3855048,Simcoe St / Wellington St W North,2024-08-03T19:09:06.076000Z,Simcoe St / Wellington St 2,0.0,0,True,1722711976,4,"['key', 'transitcard', 'creditcard', 'phone']",True,1,1,15,7334,
14,5,20671fface2f37dd6d2d4263534c29e5,43.69595,-79.328535,Coxwell Ave / Plains Rd,2024-08-03T19:09:06.149000Z,Coxwell Ave / Plains Rd,0.0,0,True,1722712108,5,"['key', 'transitcard', 'creditcard', 'phone']",True,1,1,19,7331,
8,6,67862da2d3680a6eaa417b8ce2d945d4,43.6753188,-79.3462789,Carlaw Ave / Strathcona Ave,2024-08-03T19:09:06.162000Z,Carlaw Ave / Strathcona Ave,0.0,3,True,1722712120,3,"['key', 'transitcard', 'creditcard', 'phone']",True,1,1,15,7339,
7,10,f42363acf4af847ca6fcdbe9b48c8290,43.637981,-79.424146,Liberty St / Fraser Ave Green P,2024-08-03T19:09:06.328000Z,Liberty St / Fraser Ave Green P,0.0,0,True,1722712006,10,"['key', 'transitcard', 'creditcard', 'phone']",True,1,1,19,7112,
10,0,3c85f738ad60e03252f1d62fec2f34d6,43.640885,-79.416379,King St W / Douro St,2024-08-03T19:09:06.340000Z,King St W / Douro St,0.0,0,True,1722712101,0,"['key', 'transitcard', 'creditcard', 'phone']",True,1,1,11,7111,
11,4,c7948cf5155f3ddaefa9a8279f203b5a,43.6552778,-79.36583333333333,Queen St E / Berkeley St,2024-08-03T19:09:06.356000Z,Queen St E / Berkeley St,0.0,0,True,1722711981,4,"['key', 'transitcard', 'creditcard', 'phone']",True,1,1,15,7110,
15,12,13e6abf323682b291aadb3371ce32cc7,43.664524,-79.36793,Carlton St / Parliament St,2024-08-03T19:09:06.420000Z,Carlton St / Parliament St,0.0,1,True,1722712044,11,"['key', 'transitcard', 'creditcard', 'phone']",True,1,1,27,7114,
11,2,e46a04a7825e44fa858bc0cb00a4458a,43.665867,-79.362506,Sumach St / Carlton St (Riverdale Farm),2024-08-03T19:09:06.422000Z,Sumach St / Carlton St (Riverdale Farm),0.0,0,True,1722712034,2,"['key', 'transitcard', 'creditcard', 'phone']",True,1,1,15,7119,
10,8,5db77b72334a7b8823a28662a03f8e38,43.648575,-79.380042,King St W / Bay St (East Side),2024-08-03T19:09:06.423000Z,King St W / Bay St (East Side),0.0,0,True,1722712014,8,"['key', 'transitcard', 'creditcard', 'phone']",True,1,1,19,7118,
6,8,c955acbcda8513471837f2aa55a98fb1,43.643473,-79.390477,Front St W / Blue Jays Way,2024-08-03T19:09:06.428000Z,Front St W / Blue Jays Way,0.0,0,True,1722712022,8,"['key', 'transitcard', 'creditcard', 'phone']",True,1,1,15,7059,
14,12,6d07f3c1d79ff6816c5c04a7def6e6eb,43.645859,-79.38783,Metro Hall Plaza,2024-08-03T19:09:06.448000Z,Metro Hall Plaza,,1,True,1722712082,11,"['key', 'transitcard', 'creditcard', 'phone']",True,1,1,27,7053,
8,0,019e5937c3fc120cee906770bca8fa69,43.640722,-79.391051,Navy Wharf Crt / Bremner Blvd,2024-08-03T19:09:06.484000Z,Navy Wharf Ct. / Bremner Blvd.,0.0,0,True,1722711962,0,"['key', 'transitcard', 'creditcard', 'phone']",True,1,1,9,7054,
13,2,3754aff9599513c7ba4e4649ea3818dd,43.66207,-79.37617,Jarvis St / Carlton St,2024-08-03T19:09:06.492000Z,Jarvis St / Carlton St,0.0,0,True,1722712076,2,"['key', 'transitcard', 'creditcard', 'phone']",True,1,1,15,7055,
10,1,e0ae749c309ee887012688bbd69c8b10,43.660206,-79.3244,Lake Shore Blvd E / Knox Ave,2024-08-03T19:09:06.636000Z,Lake Shore Blvd E / Knox Ave,0.0,0,True,1722712031,1,"['key', 'transitcard', 'creditcard', 'phone']",True,1,1,11,7319,
2,13,ee45e3b6a9f07f4581d82c06d9bd5f51,43.668633,-79.291162,Hubbard Blvd / Glen Manor Dr,2024-08-03T19:09:02.280000Z,Hubbard Blvd. / Glen Manor Dr.,0.0,0,True,1722712049,13,"['key', 'transitcard', 'creditcard', 'phone']",True,1,1,15,7318,
9,3,af0a7227a67fe55fb0c12597326e6b3b,43.665801,-79.384796,Yonge St / Dundonald St - SMART,2024-08-03T19:09:07.295000Z,Yonge St / Dundonald St,0.0,0,True,1722712113,3,"['key', 'transitcard', 'creditcard', 'phone']",True,1,1,12,7272,
12,6,4f8770c2a0ee3962babd83913df2e99c,43.668153,-79.38891,Bay St / Charles St W - SMART,2024-08-03T19:09:07.296000Z,Bay St / Charles St W,0.0,0,True,1722712113,6,"['key', 'transitcard', 'phone']",False,1,1,20,7273,
17,3,f0af815a9e6c12bd0382843e03fd322f,43.7063473,-79.40161,Eglinton Ave W / Henning Ave SMART,2024-08-03T19:09:07.321000Z,Eglinton Ave W / Henning Ave SMART,0.0,0,True,1722712013,3,"['key', 'transitcard', 'phone']",False,1,1,20,7371,
24,10,b3786025b3e4a46d9a21d6b82087cd12,43.6978701,-79.39419,Balliol St / Yonge St  SMART,2024-08-03T19:09:07.328000Z,Balliol St / Yonge St SMART,0.0,1,True,1722712069,9,"['key', 'transitcard', 'phone']",False,1,1,35,7377,
18,0,44bdbe8a2ac75fbe4cc0edf41fe1d4fa,43.696708,-79.40045,Frobisher Ave / Lascelles Blvd,2024-08-03T19:09:07.333000Z,Frobisher Ave / Lascelles Blvd,0.0,0,True,1722712118,0,"['key', 'transitcard', 'creditcard', 'phone']",True,1,1,19,7376,
2,9,ba979c39b60f1144fc9dd91faaeeea64,43.6476616,-79.37549,Front St E / Scott St,2024-08-03T19:09:07.338000Z,Front St E / Scott St,0.0,1,True,1722712035,8,"['key', 'transitcard', 'creditcard', 'phone']",True,1,1,11,7375,
2,17,eb9f4cf130feebf9af0dc0225411eb98,43.6487245,-79.36839,Frederick St / The Esplanade,2024-08-03T19:09:07.341000Z,Frederick St / The Esplanade,0.0,0,True,1722712058,17,"['key', 'transitcard', 'creditcard', 'phone']",True,1,1,19,7374,
33,6,52d497af695140c759b28d7bf63e94f4,43.64852,-79.380576,King St W / Bay St (West Side),2024-08-03T19:09:07.636000Z,King St W / Bay St (West Side),0.0,0,True,1722712122,6,"['key', 'transitcard', 'creditcard', 'phone']",True,1,1,39,7015,
11,3,ee2e9277d3e8a86acbfdda0e395d1378,43.656026,-79.385327,Elizabeth St / Edward St (Bus Terminal),2024-08-03T19:09:07.641000Z,Elizabeth St / Edward St (Bus Terminal),0.0,0,True,1722712104,3,"['key', 'transitcard', 'creditcard', 'phone']",True,1,1,15,7012,
5,13,90d36d6e81fff926a434e196e0a43d53,43.645323,-79.395003,King St W / Spadina Ave,2024-08-03T19:09:07.660000Z,King St W / Spadina Ave,0.0,0,True,1722712019,13,"['key', 'transitcard', 'creditcard', 'phone']",True,1,1,19,7010,
15,0,14d5d7e0f5a8e23c9b50f62ea39f725c,43.677778,-79.405556,Glen Edyth Dr / Davenport Rd,2024-08-03T19:09:07.788000Z,Glen Edyth Dr / Davenport Rd,0.0,0,True,1722712132,0,"['key', 'transitcard', 'creditcard', 'phone']",True,1,1,15,7139,
14,31,3bfbe7d9edced07da6dd283495fb8170,43.641646,-79.375308,Queens Quay / Yonge St,2024-08-03T19:09:07.796000Z,Queens Quay / Yonge St,0.0,0,True,1722712099,31,"['key', 'transitcard', 'creditcard', 'phone']",True,1,1,47,7168,
2,6,58c0d439a59414e5e23bf5021e264d79,43.646162,-79.378912,Front St W / Bay St (North Side),2024-08-03T19:09:07.809000Z,Front St W / Bay St (North Side),0.0,0,True,1722712020,6,"['key', 'transitcard', 'creditcard', 'phone']",True,1,1,11,7169,
10,5,f36d8ed5ff407fc4eab6c9cc344661f9,43.687323,-79.304848,Danforth Ave / Westlake Ave,2024-08-03T19:09:07.818000Z,Danforth Ave / Westlake Ave,0.0,0,True,1722712055,5,"['key', 'transitcard', 'creditcard', 'phone']",True,1,1,15,7085,
23,0,15fc89637ebe1c3e63fbe123d70819ee,43.668991,-79.379385,Jarvis St / Isabella St,2024-08-03T19:09:07.836000Z,Jarvis St / Isabella St,0.0,0,True,1722712091,0,"['key', 'transitcard', 'creditcard', 'phone']",True,1,1,23,7031,
11,4,ef0363fb67db85c62cfe83b7032ade5b,43.6622222,-79.3825,Yonge St / Wood St,2024-08-03T19:09:07.857000Z,Yonge St / Wood St,0.0,0,True,1722711968,4,"['key', 'transitcard', 'creditcard', 'phone']",True,1,1,15,7163,
5,13,9fcbcd2e313ddf16bc7200bede80e9a6,43.64333333333333,-79.40555555555557,King St W / Tecumseth St,2024-08-03T19:09:07.885000Z,King St W / Tecumseth St,0.0,1,True,1722712017,12,"['key', 'transitcard', 'creditcard', 'phone']",True,1,1,19,7160,
17,5,f5506a406fb49a19088bedd1d8e9cd2f,43.6575,-79.39527777777778,Beverley St / College St,2024-08-03T19:09:07.908000Z,Beverley St / College St,0.0,0,True,1722711996,5,"['key', 'transitcard', 'creditcard', 'phone']",True,1,1,23,7161,
12,6,fc62f74abe3d79fa430f55f6f56e5e3a,43.657424,-79.381019,Gould St / Yonge St (TMU),2024-08-03T19:09:07.933000Z,Gould St / Yonge St (Ryerson University),0.0,0,True,1722711977,6,"['key', 'transitcard', 'creditcard', 'phone']",True,1,1,23,7164,
12,3,4b13a471170e0768fe5e1ca0b30fde8d,43.64595,-79.378761,Front St W / Bay St (South Side),2024-08-03T19:09:07.953000Z,Front St W / Bay St (South Side),0.0,0,True,1722712131,3,"['key', 'transitcard', 'creditcard', 'phone']",True,1,1,19,7283,
23,0,5e8bf46c90fa957882beddfb6625870b,43.668427,-79.38725,Charles St W / Balmuto St - SMART,2024-08-03T19:09:07.998000Z,Charles St W / Balmuto St,0.0,0,True,1722712030,0,"['key', 'transitcard', 'phone']",False,1,1,24,7281,
19,1,3ba9b248dbb5b0ffa30ec9807f14476c,43.669604,-79.381171,Charles St E / Jarvis St - SMART,2024-08-03T19:09:08.036000Z,Charles St E / Jarvis St,0.0,0,True,1722711999,1,"['key', 'transitcard', 'phone']",False,1,1,20,7280,
1,11,0690f86b4ecb172570d8e08b5f9004c3,43.661673,-79.337789,Queen St E / Pape Ave - SMART,2024-08-03T19:09:08.060000Z,Queen St E / Pape Ave,0.0,1,True,1722712087,10,"['key', 'transitcard', 'phone']",False,1,1,15,7287,
2,15,9796c16b7ac90260d9f033ba4735acea,43.665656,-79.352055,Gerrard St E / Broadview Ave  - SMART,2024-08-03T19:09:08.086000Z,Gerrard St E / Broadview,0.0,1,True,1722712108,14,"['key', 'transitcard', 'phone']",False,1,1,18,7286,
19,2,abbcc3b45ad10472c3ec35ce3fb6e078,43.6308933,-79.4722622,Humber Bay Shores Park East,2024-08-03T19:09:08.102000Z,Humber Bay Shores Park East,0.0,0,True,1722712024,2,"['key', 'transitcard', 'creditcard', 'phone']",True,1,1,22,7289,
29,1,ec48a65298b460584afe2586c15c360c,43.6224434,-79.480284,Humber Bay Shores Park West,2024-08-03T19:09:08.104000Z,Humber Bay Shores Park West,0.0,0,True,1722712037,1,"['key', 'transitcard', 'creditcard', 'phone']",True,1,1,31,7288,
12,3,21982c325ac8d5dcc146b350aa0e8298,43.66986,-79.398443,Taddle Creek Park,2024-08-03T19:09:08.118000Z,Taddle Creek Park,0.0,0,True,1722711976,3,"['key', 'transitcard', 'creditcard', 'phone']",True,1,1,15,7131,
13,11,82748c8c8a714dd216bcd4c636585556,43.659471,-79.350325,Thompson St / Broadview Ave - SMART,2024-08-03T19:09:08.193000Z,Thompson St / Broadview Ave,0.0,0,True,1722712021,11,"['key', 'transitcard', 'phone']",False,1,1,24,7236,
14,5,16658c808dda522274b99346e8f815fb,43.650492,-79.450842,Roncesvalles Ave / Marmaduke St,2024-08-03T19:09:08.205000Z,Roncesvalles Ave / Marmaduke St,0.0,0,True,1722712055,5,"['key', 'transitcard', 'creditcard', 'phone']",True,1,1,19,7234,
9,6,4d985c0489e4b123e499fcaa4b70e32e,43.640255,-79.439223,Queen St W  /  Fuller Ave - SMART,2024-08-03T19:09:08.216000Z,Queen St W / Fuller Ave,0.0,1,True,1722711982,5,"['key', 'transitcard', 'phone']",False,1,1,16,7232,
11,4,2567d3e27e558c6e6ee94c289c838111,43.637922,-79.431734,King St W / Cowan Ave - SMART,2024-08-03T19:09:08.220000Z,King St W / Cowan Ave,0.0,0,True,1722712126,4,"['key', 'transitcard', 'phone']",False,1,1,16,7233,
11,8,760056e88951946d2f3e9bea859333eb,43.643769,-79.447915,Garden Ave / Roncesvalles Ave,2024-08-03T19:09:08.224000Z,Garden Ave / Roncesvalles Ave,0.0,1,True,1722712019,7,"['key', 'transitcard', 'creditcard', 'phone']",True,1,1,19,7230,
13,2,c08362564d4889e345bfaaa42da5fb4f,43.649172,-79.4445087,Sorauren Ave / Geoffrey St - SMART,2024-08-03T19:09:08.246000Z,Sorauren St / Geoffrey St (Sorauren Park),0.0,0,True,1722712115,2,"['key', 'transitcard', 'phone']",False,1,1,16,7238,
3,13,29f79e7d7e4440c7554a3f3e3bae4f88,43.66587,-79.33443,Mallon Ave / Jones Ave -SMART,2024-08-03T19:09:01.509000Z,Mallon Ave / Jones Ave,0.0,0,True,1722712114,13,"['key', 'transitcard', 'phone']",False,1,1,16,7278,M4M2Z1
17,2,8d65a48806e799a8c2d5dcb77e97c1cb,43.658816,-79.367318,Berkeley St / Dundas St E - SMART,2024-08-03T19:09:06.304000Z,Berkeley St / Dundas St E - SMART,0.0,0,True,1722712022,2,"['key', 'transitcard', 'phone']",False,1,1,20,7508,M5A 2A7
16,2,53fc6d540a0eac8fb9f5366572e53515,43.654004,-79.444792,128 Sterling Rd - SMART,2024-08-03T19:09:03.271000Z,128 Sterling Ave - SMART,0.0,0,True,1722712126,2,"['key', 'transitcard', 'phone']",False,1,1,20,7497,M6P 0A1
1,15,049156f7c0e19a53a77d8310d93eed0c,43.6397,-79.44865,Sunnyside Ave / The Queensway - SMART,2024-08-03T19:09:03.265000Z,Sunnyside Ave / The Queensway - SMART,0.0,1,True,1722712034,14,"['key', 'transitcard', 'phone']",False,1,1,19,7496,M6R 1B4
2,10,adaa360374ea04ae057eba2ca7ba3e5b,43.653809,-79.3595,Sackville St / Eastern Ave - SMART,2024-08-03T19:09:03.253000Z,Sackville St / Eastern Ave - SMART,0.0,0,True,1722711966,10,"['key', 'transitcard', 'phone']",False,1,1,12,7493,M5A 3E1
9,2,8485289697ef258129b2437308511fcb,43.673768,-79.391253,Davenport Rd / McAlpine St - SMART,2024-08-03T19:09:03.277000Z,Davenport Rd / McAlpine St - SMART,0.0,0,True,1722712062,2,"['key', 'transitcard', 'phone']",False,1,1,12,7494,M5R 1H4
13,5,fb0ff514e9bb7798f0a682f36f644b05,43.656638,-79.358749,Sumach St  / Queen St E,2024-08-03T19:09:05.729000Z,Sumach St  / Queen St E,0.0,0,True,1722712131,5,"['key', 'transitcard', 'creditcard', 'phone']",True,1,1,19,7489,M5A 1V1
17,3,c835abf1540e63c50d5a879e5075387e,43.684261,-79.299332,Gerrard St E / Main St,2024-08-03T19:09:05.691000Z,Gerrard St E / Main St,0.0,2,True,1722712121,1,"['key', 'transitcard', 'creditcard', 'phone']",True,1,1,21,7486,M4E 2E1
3,8,32b476b39dacc23dda545c39ffb549cc,43.678685,-79.297974,Southwood Dr / Kingston Rd - SMART,2024-08-03T19:09:05.710000Z,Southwood Dr / Kingston Rd - SMART,0.0,0,True,1722711963,8,"['key', 'transitcard', 'phone']",False,1,1,12,7483,M4E 1R3
8,4,de5dcf1ee9ccff065e01b4516b46f190,43.65143,-79.47779,Neil McLellan Park,2024-08-03T19:09:05.705000Z,Neil McLellan Park - SMART,0.0,1,True,1722712081,3,"['key', 'transitcard', 'creditcard', 'phone']",True,1,1,14,7480,M6S 3B4
13,2,8aa5c061e4ae37e2e05b05d04afadc2e,43.64976,-79.48477,Jane St / Bloor St W (Jane Subway Station),2024-08-03T19:09:05.884000Z,Jane St / Bloor St W (Jane Subway Station),0.0,1,True,1722712038,1,"['key', 'transitcard', 'creditcard', 'phone']",True,1,1,15,7479,M6S 3Y2
19,0,5f6ec96dda864a01fdf0c031b6a1b6d0,43.664182,-79.449066,Antler St / Campbell Ave - SMART,2024-08-03T19:09:06.021000Z,Antler St / Campbell Ave - SMART,0.0,0,True,1722712115,0,"['key', 'transitcard', 'phone']",False,1,1,20,7477,M6P 3V5
20,2,4a5734eee8c1c49197ffe9b992dd032a,43.64407,-79.3929,Clarence Square,2024-08-03T19:09:05.992000Z,Clarence Square,0.0,1,True,1722712087,1,"['key', 'transitcard', 'creditcard', 'phone']",True,1,1,23,7474,M5V 1H1
18,6,41466727730d71a0286376ef3675d282,43.6442,-79.38702,Front St W / Simcoe St,2024-08-03T19:09:08.389000Z,Front St / Simcoe St,0.0,1,True,1722712016,5,"['key', 'transitcard', 'creditcard', 'phone']",True,1,1,27,7468,M5V 2W6
6,8,213541646a587196b1acb812a3d0a8ad,43.64283,-79.38409,Lower Simcoe St / Bremner Blvd,2024-08-03T19:09:08.455000Z,Lower Simcoe St / Bremner Blvd,0.0,2,True,1722712034,6,"['key', 'transitcard', 'creditcard', 'phone']",True,1,1,15,7467,M5J 3A6
8,9,1a68bd75d5159c7cc33367b97ee8ab8e,43.65182,-79.47421,Glendonwynne Rd / Bloor St W,2024-08-03T19:09:08.464000Z,Glendonwynne Ave / Bloor St W - SMART,0.0,1,True,1722711968,8,"['key', 'transitcard', 'creditcard', 'phone']",True,1,1,18,7466,M6S 1N3
18,0,1dd10befe3fa0d7d7ebc657b9a01942b,43.685569,-79.408019,Russell Hill Rd / St Clair Ave W,2024-08-03T19:09:08.471000Z,Russell Hill Rd / St Clair Ave W - SMART,0.0,0,True,1722711992,0,"['key', 'transitcard', 'creditcard', 'phone']",True,1,1,19,7465,M4V 1R8
4,12,41ead9c9a4a83459161794bfb1894c07,43.651678,-79.375233,Church St / Lombard St,2024-08-03T19:09:02.145000Z,Church St / Lombard St,0.0,0,True,1722712019,12,"['key', 'transitcard', 'creditcard', 'phone']",True,1,1,17,7458,M5C 3H9
7,10,888212c5d33ceed5acbab77b4e544689,43.651838,-79.378743,Richmond St E / Yonge St,2024-08-03T19:09:08.438000Z,Richmond St E / Yonge St,0.0,0,True,1722712018,10,"['key', 'transitcard', 'creditcard', 'phone']",True,1,1,17,7462,M5C 1X7
8,12,189995604737e19f1b76cd3a3ff3aff9,43.665221,-79.394009,Queen's Park Cres W / Hoskin Ave,2024-08-03T19:09:02.058000Z,Queen's Park Cres W / Hoskin Ave,0.0,3,True,1722712000,9,"['key', 'transitcard', 'creditcard', 'phone']",True,1,1,23,7457,M5S 1H7
3,10,fe268f3f2f439d0016dc46605491078e,43.688148,-79.362101,Pottery Rd / Lower Don River Trail,2024-08-03T19:09:02.061000Z,Pottery Rd / Lower Don River Trail - SMART,0.0,0,True,1722711955,10,"['key', 'transitcard', 'creditcard', 'phone']",True,1,1,15,7454,M4K 2B9
13,8,70ad303e74f93aa2bfaea256b9b09753,43.669232,-79.374495,Bleecker St / St James Ave,2024-08-03T19:09:02.063000Z,Bleecker St / St James Ave,0.0,1,True,1722712077,7,"['key', 'transitcard', 'creditcard', 'phone']",True,1,1,23,7452,M4X 1M2
30,1,a7cdbedefded6e117505bde22c24ef84,43.640075,-79.414156,Western Battery Rd / Pirandello St,2024-08-03T19:09:02.080000Z,Western Battery Rd / Pirandello St,0.0,0,True,1722711955,1,"['key', 'transitcard', 'creditcard', 'phone']",True,1,1,31,7451,M6K 3S4
13,2,fbcb8f44813b5f7eba282691176d9249,43.678285,-79.347346,Carlaw Ave / Danforth Ave,2024-08-03T19:09:02.073000Z,Carlaw Ave / Danforth Ave - SMART,0.0,0,True,1722712034,2,"['key', 'transitcard', 'creditcard', 'phone']",True,1,1,15,7450,M4K 1P7
14,1,280ce4cfc4b101f3a8a08843e4a258d6,43.697139,-79.31469,Cosburn Ave / Cedarvale Ave,2024-08-03T19:09:04.388000Z,Cosburn Ave / Cedarvale Ave,0.0,0,True,1722712027,1,"['key', 'transitcard', 'creditcard', 'phone']",True,1,1,15,7449,M4C 4K7
15,3,9d4f1f5d63ed3e297fc737908616f617,43.694826,-79.295208,Goodwood Park Crt / Dentonia Park,2024-08-03T19:09:04.394000Z,Goodwood Park Ct / Dentonia Park,0.0,1,True,1722711989,2,"['key', 'transitcard', 'creditcard', 'phone']",True,1,1,19,7448,M4C2G5
1,18,0729b25bcf663b7a2278f01d63b50fcf,43.673118,-79.318651,Eastwood Rd / Coxwell Ave,2024-08-03T19:09:04.350000Z,Eastwood Rd / Coxwell Ave,0.0,2,True,1722712064,16,"['key', 'transitcard', 'creditcard', 'phone']",True,1,1,19,7445,M4L 3B5
16,7,27e30ff4939a3992db39e99af9dfe172,43.689293,-79.295895,Trent Ave / Danforth Ave,2024-08-03T19:09:04.363000Z,Trent Ave / Danforth Ave - SMART,0.0,0,True,1722712004,7,"['key', 'transitcard', 'creditcard', 'phone']",True,1,1,23,7447,M4C 1M2
5,14,675628c054189e3bce23785d6574a24d,43.66908,-79.3149,Orchard Park,2024-08-03T19:09:04.376000Z,Orchard Park,0.0,0,True,1722711985,14,"['key', 'transitcard', 'creditcard', 'phone']",True,1,1,19,7446,M4L 1M7
19,0,32915794131e41a355ebee1ab9ad78fb,43.66073,-79.47149,Clendenan Ave / Rowland St - SMART,2024-08-03T19:09:04.356000Z,Clendenan Ave / Rowland St - SMART,0.0,0,True,1722712133,0,"['key', 'transitcard', 'phone']",False,1,1,20,7444,M6P 2X6
15,0,738cf12a45b36f443d7585aa9d55e3a9,43.66189,-79.42679,Concord Ave / Bloor St W,2024-08-03T19:09:04.784000Z,Concord Ave / Bloor St W - SMART,0.0,0,True,1722712011,0,"['key', 'transitcard', 'creditcard', 'phone']",True,1,1,15,7437,M6H 1L1
19,0,1f5bb4fff3139fff3f927f1a4980dc1e,43.65389,-79.4675,Gothic Ave / Quebec Ave,2024-08-03T19:09:04.893000Z,High Park Subway - SMART,0.0,0,True,1722712031,0,"['key', 'transitcard', 'creditcard', 'phone']",True,1,1,19,7438,M6P 2V9
10,0,3df6faa6bc73f93a672aa3e3004434f0,43.68114,-79.4277,Rushton Rd / St Clair Ave W,2024-08-03T19:09:04.777000Z,Rushton Rd / St Clair Ave W - SMART,0.0,0,True,1722712089,0,"['key', 'transitcard', 'creditcard', 'phone']",True,1,1,10,7435,M6G 3J4
3,13,8ab6f991fa3032ee2a20b1d34d50be01,43.663148,-79.347938,Dundas St E / Boulton Ave - SMART,2024-08-03T19:09:04.820000Z,Dundas St E / Boulton Ave - SMART,0.0,0,True,1722712112,13,"['key', 'transitcard', 'phone']",False,1,1,16,7433,M4M 2J6
4,20,236729e04a979069b035a3070e608f6e,43.669813,-79.3335,Gerrard St E / Leslie St,2024-08-03T19:09:04.802000Z,Gerrard St E / Leslie St,0.0,1,True,1722712125,19,"['key', 'transitcard', 'creditcard', 'phone']",True,1,1,24,7431,M4M 2A1
0,24,2800c972b83e435cecefcdb95078e435,43.633537,-79.437461,Marilyn Bell Park Tennis Court,2024-08-03T19:09:04.797000Z,Marilyn Bell Park Tennis Court,0.0,0,True,1722712090,24,"['key', 'transitcard', 'creditcard', 'phone']",True,1,1,27,7430,M6K 3C1
6,16,2c32c6a2dbfb666ee51150ce15e1b9a5,43.63632,-79.47307,The Queensway at South Kingsway,2024-08-03T19:09:07.356000Z,The Queensway at South Kingsway - SMART,0.0,0,True,1722712057,16,"['key', 'transitcard', 'creditcard', 'phone']",True,1,1,23,7425,M6S 5B7
20,3,9fa8f250a5b887af9cda8df6931f2eca,43.697819,-79.38786,Merton St / Mount Pleasant Rd,2024-08-03T19:09:07.359000Z,Merton St / Mount Pleasant Rd - SMART,0.0,1,True,1722712071,2,"['key', 'transitcard', 'creditcard', 'phone']",True,1,1,23,7424,M4S 1A7
8,7,c9395d274aa197587eb89f34e68e262a,43.638426,-79.429142,Tyndall Ave / King St W - SMART,2024-08-03T19:09:07.396000Z,Tyndall Ave / King St W - SMART,0.0,0,True,1722712098,7,"['key', 'transitcard', 'phone']",False,1,1,16,7422,M6K 2E2
15,9,a3eb9012fe995bffeef3b7d02cfffbd1,43.65988,-79.38279,College Park - Yonge St Entrance,2024-08-03T19:09:01.385000Z,College Park - Yonge Entrance,0.0,0,True,1722712066,9,"['key', 'transitcard', 'creditcard', 'phone']",True,1,1,25,7418,M5B 2H4
26,2,7c6f64117f740f5dc9114ebfb26a6247,43.66842,-79.410585,Barton Ave / Howland Ave - SMART,2024-08-03T19:09:07.424000Z,Barton St / Howland St - SMART,0.0,0,True,1722712035,2,"['key', 'transitcard', 'phone']",False,1,1,28,7420,M5R 3B5
12,2,d1bac3c8125c67909fa2e4a3cdf6b409,43.66402,-79.46418,Keele St / Annette St,2024-08-03T19:09:01.349000Z,Keele St / Annette St - SMART,0.0,0,True,1722711977,2,"['key', 'transitcard', 'creditcard', 'phone']",True,1,1,15,7414,M6P 2K9
21,2,e7384509a60160b8e84403a3247255a5,43.66686,-79.46526,Keele St / Vine Ave,2024-08-03T19:09:01.351000Z,Keele St / Vine Ave - SMART,0.0,1,True,1722712010,1,"['key', 'transitcard', 'creditcard', 'phone']",True,1,1,23,7415,M6P 3K2
15,4,56ff366ef56862dc34e4df414568d4b0,43.671278,-79.372127,Howard St / Rose Ave,2024-08-03T19:09:01.318000Z,Howard St / Ontario St,0.0,0,True,1722712011,4,"['key', 'transitcard', 'creditcard', 'phone']",True,1,1,19,7410,M4X 1J9
3,19,940aa4a33247df5ea989d1b07e125e5d,43.635023,-79.399505,Little Norway Park,2024-08-03T19:09:01.320000Z,Little Norway Park,0.0,0,True,1722712001,19,"['key', 'transitcard', 'creditcard', 'phone']",True,1,1,22,7411,M5V 2Y9
1,18,ef9dfe14fccf2237630ed9002c48fc3b,43.70547,-79.40355,Lascelles Blvd / Eglinton Ave W,2024-08-03T19:09:03.587000Z,Lascelles Blvd / Eglinton Ave W - SMART,0.0,0,True,1722712021,18,"['key', 'transitcard', 'creditcard', 'phone']",True,1,1,19,7403,M4R 1A6
0,20,93727b82ed700768aa9695d49140f6b3,43.641675,-79.354006,Polson Pier,2024-08-03T19:09:03.577000Z,Polson Pier,0.0,3,True,1722712034,17,"['key', 'transitcard', 'creditcard', 'phone']",True,1,1,23,7400,M5A 1A5
19,3,f84773b4dcedcaea20de2c7e324d8c90,43.694341,-79.291416,Dentonia Park,2024-08-03T19:09:04.186000Z,Dentonia Park Station,0.0,0,True,1722712022,3,"['key', 'transitcard', 'creditcard', 'phone']",True,1,1,23,7395,J4G 29
14,1,3d13e32b7336dbe2c6b2190df3ba8600,43.64422,-79.36927,Lower Jarvis St / Queens Quay E,2024-08-03T19:09:04.207000Z,Lower Jarvis / Queens Quay E,0.0,0,True,1722711966,1,"['key', 'transitcard', 'creditcard', 'phone']",True,1,1,18,7399,M5E 1Z2
8,2,009f180cf35ae1285733d98ccf058313,43.685924,-79.376304,Summerhill Ave / Maclennan Ave,2024-08-03T19:09:05.738000Z,Summerhill Ave / Maclennan Ave,0.0,0,True,1722712025,2,"['key', 'transitcard', 'creditcard', 'phone']",True,1,1,11,7488,M4M 2Z9
2,20,c452eea1e95d474e6f1b7ea545e79d1b,43.645215,-79.364898,Queens Quay E / Lower Sherbourne St,2024-08-03T19:09:01.286000Z,Queens Quay E / Lower Sherbourne,0.0,0,True,1722712097,20,"['key', 'transitcard', 'creditcard', 'phone']",True,1,1,25,7261,M5A 3Y4
14,3,1fe6812cc638f0e5080113daa9a7d77a,43.646677,-79.442741,Wright Ave / Sorauren Ave - SMART,2024-08-03T19:09:08.231000Z,Wright Ave / Sorauren St (Sorauren Park),0.0,1,True,1722712104,2,"['key', 'transitcard', 'phone']",False,1,1,18,7231,
4,14,b4462a2daef20c76a3ff7c53326f10e4,43.63855,-79.46693,Ellis Ave / The Queensway,2024-08-03T19:09:05.881000Z,Ellis Ave / The Queensway,0.0,0,True,1722712055,14,"['key', 'transitcard', 'creditcard', 'phone']",True,1,1,19,7478,M6S 2X1
0,9,1e83030210b6666f3fe29bade92f1181,43.645599,-79.4657123,High Park - Grenadier Cafe,2024-08-03T19:09:07.822000Z,High Park - Grenadier Cafe,0.0,0,True,1722712026,9,"['key', 'transitcard', 'creditcard', 'phone']",True,1,1,11,7084,
10,0,c102428e69ec84dd803fd2f51b8cfc83,43.674923,-79.430465,Winona Dr / Davenport Rd,2024-08-03T19:09:00.474000Z,Winona Dr / Davenport Rd,0.0,0,True,1722712102,0,"['key', 'transitcard', 'creditcard', 'phone']",True,1,1,11,7302,
4,6,68185cf4a510f34c7dd396bb2fb7549a,43.684758,-79.316767,Danforth Ave / Aldridge Ave,2024-08-03T19:09:07.832000Z,Danforth Ave / Aldridge Ave,0.0,1,True,1722711980,5,"['key', 'transitcard', 'creditcard', 'phone']",True,1,1,11,7087,
35,3,deb6cce4318ac072f72c4988efd9dbdf,43.66663,-79.38148,Dundonald St / Church St,2024-08-03T19:09:05.078000Z,Dundonald St / Church St,0.0,0,True,1722711966,3,"['key', 'transitcard', 'creditcard', 'phone']",True,1,1,39,7024,
15,4,7f15a95a0104437a73d574be76cb4158,43.685221,-79.294766,Gerrard St E / Malvern Ave - SMART,2024-08-03T19:09:06.286000Z,Gerrard St E / Malvern Ave - SMART,0.0,0,True,1722711955,4,"['key', 'transitcard', 'phone']",False,1,1,19,7503,M4E 2E1
1,31,263344f0b04caa421826eceaadd15697,43.635492,-79.398253,Bathurst St/Queens Quay(Billy Bishop Airport),2024-08-03T19:09:05.828000Z,Bathurst St/Queens Quay(Billy Bishop Airport),0.0,0,True,1722712032,31,"['key', 'transitcard', 'creditcard', 'phone']",True,1,1,35,7203,
6,9,624be8411d63932754479f0b710eaa97,43.63951,-79.383717,Queens Quay W / Lower Simcoe St,2024-08-03T19:09:01.796000Z,Queens Quay W / Lower Simcoe St,0.0,1,True,1722712069,8,"['key', 'transitcard', 'creditcard', 'phone']",True,1,1,19,7043,
10,13,26c9984a5ec1ea1e7edb7fafa8d1e6f7,43.6417852,-79.4131148,King St W / Crawford St,2024-08-03T19:09:01.308000Z,King St W / Crawford St - SMART,0.0,0,True,1722712039,13,"['key', 'transitcard', 'creditcard', 'phone']",True,1,1,23,7412,M6K 3M5
14,16,d52672d5cddbb77befa3d5d448fc2534,43.655766,-79.3802,Yonge St / Dundas Sq,2024-08-03T19:09:04.197000Z,Yonge St / Dundas Sq,0.0,1,True,1722712067,15,"['key', 'transitcard', 'creditcard', 'phone']",True,1,1,31,7391,
10,1,735f71a11ab473f25860d7366582a5fa,43.680466,-79.432522,St Clair Ave W / Winona Dr,2024-08-03T19:09:05.277000Z,St Clair Ave W / Winona Dr - SMART,0.0,1,True,1722711999,0,"['key', 'transitcard', 'creditcard', 'phone']",True,1,1,11,7459,M6C 1C2
47,2,6f5d2f1ea5a0702ceb169480117ac9fd,43.664088,-79.387095,Bay St / Wellesley St W,2024-08-03T19:09:02.500000Z,Bay St / Wellesley St W,,0,True,1722712058,2,"['key', 'transitcard', 'creditcard', 'phone']",True,1,1,51,7030,
17,3,9c5267129912b44d3d8c91094256f1e2,43.65917,-79.46997,Humberside Grounds - SMART,2024-08-03T19:09:06.259000Z,Humberside Grounds - SMART,0.0,0,True,1722712089,3,"['key', 'transitcard', 'phone']",False,1,1,20,7501,M6P 3G4
19,1,22cedcbf1b4580a7995f4e15843bd2ef,43.671535,-79.379173,Bloor St E / Huntley St - SMART,2024-08-03T19:09:01.269000Z,Bloor St E / Huntley St,0.0,0,True,1722711979,1,"['key', 'transitcard', 'phone']",False,1,1,20,7264,
13,9,ed02403ba3e67b969a9d5e10742b7d5b,43.646734,-79.38301,York St / Wellington St W (1) ,2024-08-03T19:09:08.381000Z,Wellington St W / York St,0.0,0,True,1722712015,9,"['key', 'transitcard', 'creditcard', 'phone']",True,1,1,23,7469,M5J 2R2
11,3,aeeb1fa2ea65f1492a523f0477de71d7,43.6662942,-79.4066433,Dalton Rd / Bloor St W,2024-08-03T19:09:03.855000Z,Dalton Rd / Bloor St W,0.0,2,True,1722712119,1,"['key', 'transitcard', 'creditcard', 'phone']",True,1,1,15,7061,M6G1A1
27,0,a249bee44425dc2b5c2f384a00a59f33,43.675278,-79.423889,Davenport Rd / Christie St,2024-08-03T19:09:02.509000Z,Davenport Rd / Christie St,0.0,0,True,1722712052,0,"['key', 'transitcard', 'creditcard', 'phone']",True,1,1,27,7138,
6,3,24de23035684fccb1f588c7161489075,43.648928,-79.378623,King St W / Jordan St,2024-08-03T19:09:01.333000Z,King St / Jordan St - SMART,0.0,0,True,1722712005,3,"['key', 'transitcard', 'creditcard', 'phone']",True,1,1,10,7417,M5H 1C3
26,1,aa101867125c9cc13920e34d881f86b2,43.715951,-79.351246,E.T. Seton Park (Eglinton Ave E / Leslie St),2024-08-03T19:09:02.062000Z,E.T. Seton Park (Eglinton Ave E / Leslie St),0.0,0,True,1722711967,1,"['key', 'transitcard', 'creditcard', 'phone']",True,1,1,27,7455,M4P 1A2
13,13,6cdafdc1db0f73b22c3fd462fd984805,43.665645,-79.304711,Woodbine Ave / Lake Shore Blvd E,2024-08-03T19:09:07.596000Z,Woodbine Ave / Lake Shore Blvd E,0.0,1,True,1722711971,12,"['key', 'transitcard', 'creditcard', 'phone']",True,1,1,27,7428,M4L 1B8
17,6,1d827726987d707bbcd5562e02416b0e,43.645572,-79.39399,King St W / Charlotte St,2024-08-03T19:09:03.601000Z,King St W / Charlotte St,0.0,0,True,1722712108,6,"['key', 'transitcard', 'creditcard', 'phone']",True,1,1,23,7324,
15,3,08d867cbed5f08addb01b714700eacf7,43.652777,-79.372637,Jarvis St / Richmond St E,2024-08-03T19:09:06.002000Z,Jarvis St / Richmond St E,0.0,0,True,1722712056,3,"['key', 'transitcard', 'creditcard', 'phone']",True,1,1,19,7475,M5C 2H6
11,4,2d9b09d13ca6695d876ff08853469a24,43.665538,-79.451263,Symington Ave / Dupont St,2024-08-03T19:09:06.008000Z,Symington Ave / Dupont St - SMART,0.0,0,True,1722712006,4,"['key', 'transitcard', 'creditcard', 'phone']",True,1,1,15,7476,M6P 3S3
8,14,c9624aaf955b7fb236dcf2c8443c8fe9,43.650325,-79.372287,King St E / Jarvis St,2024-08-03T19:09:01.438000Z,King St E / Jarvis St,0.0,0,True,1722712007,14,"['key', 'transitcard', 'creditcard', 'phone']",True,1,1,25,7009,
1,11,2d1d89a437dbc32634ba928744831860,43.66943,-79.38915,Bay St / Bloor St W (East Side),2024-08-03T19:09:05.093000Z,1199 Bay St,0.0,0,True,1722712014,11,"['key', 'transitcard', 'creditcard', 'phone']",True,1,1,15,7029,M6G1X2
2,17,179e575503c062aa31a47c6f67d492da,43.669244,-79.3894,Bay St / Bloor St W (West Side),2024-08-03T19:09:06.058000Z,1188 Bay St,0.0,0,True,1722711955,17,"['key', 'transitcard', 'creditcard', 'phone']",True,1,1,19,7335,M6H1a1
15,0,ffc954e6f4228f59169c040483ebcc3a,43.683351,-79.41562,Wells Hill Ave / St Clair Ave W,2024-08-03T19:09:04.729000Z,Wells Hill Ave / St Clair Ave W,0.0,0,True,1722712032,0,"['key', 'transitcard', 'creditcard', 'phone']",True,1,1,15,7363,
19,5,41b880ed1fe29761e25d4e3a492b563d,43.6574766,-79.373446,Dundas St E / George St,2024-08-03T19:09:04.318000Z,Dundas St E / George St - SMART,0.0,0,True,1722712082,5,"['key', 'transitcard', 'creditcard', 'phone']",True,1,1,25,7443,M6H 1N6
1,20,c209afb99ac56fcd8f423e9365621ee7,43.636611,-79.400042,Fleet St / Bathurst St,2024-08-03T19:09:01.667000Z,Fleet St / Bathurst St,0.0,0,True,1722712041,20,"['key', 'transitcard', 'creditcard', 'phone']",True,1,1,23,7072,M6G1X2
7,2,7f5ae543870ee8917aaa5022234c5e0b,43.646552,-79.406468,Tecumseth St / Queen St W - SMART,2024-08-03T19:09:04.647000Z,Tecumseth St / Queen St W,0.0,0,True,1722712094,2,"['key', 'transitcard', 'phone']",False,1,1,9,7245,
14,2,d00c14c6cffc4b0fb30239ec2410232c,43.713524,-79.400162,Briar Hill Ave / Yonge St - SMART,2024-08-03T19:09:05.680000Z,Briar Hill Ave / Yonge St - SMART,0.0,1,True,1722712071,1,"['key', 'transitcard', 'phone']",False,1,1,16,7484,M4P 2J2
11,0,9c2e322a9d2bd1035e3f607f96152a98,43.65003919999999,-79.3733541,King St E / Church St,2024-08-03T19:09:01.633000Z,St James Park,0.0,0,True,1722711968,0,"['key', 'transitcard', 'creditcard', 'phone']",True,1,1,15,7074,M5C 1G6
17,2,03cb067499bb9bc86cf0c884edb403bc,43.663376,-79.392125,Wellesley St W / Queen's Park Cres,2024-08-03T19:09:01.443000Z,Wellesley St W / Queen's Park Cres,0.0,0,True,1722712030,2,"['key', 'transitcard', 'creditcard', 'phone']",True,1,1,19,7008,
11,7,2f10b834460965288d419163586f3f89,43.65995,-79.38964,University Ave / College St (East),2024-08-03T19:09:06.273000Z,University Ave / College St (East),0.0,0,True,1722712023,7,"['key', 'transitcard', 'creditcard', 'phone']",True,1,1,20,7502,M5G 1L7
1,16,1ac23b3d20ad003acf2f9b1f8a2f2f0b,43.6146692,-79.4873148,Superior Ave / Lake Shore Blvd W,2024-08-03T19:09:00.653000Z,Superior Ave / Lake Shore Blvd W,0.0,0,True,1722711953,16,"['key', 'transitcard', 'creditcard', 'phone']",True,1,1,17,7516,M8V 2M1
22,3,50d8ed93a01d05c04298300fe52b5ac7,43.63771,-79.458173,Lake Shore Blvd W / Colborne Lodge Dr,2024-08-03T19:09:00.684000Z,Lake Shore Blvd W / Colborne Lodge Dr,0.0,0,True,1722712070,3,"['key', 'transitcard', 'creditcard', 'phone']",True,1,1,27,7518,M6S 5A3
3,19,f897c08ea341fc832b7ca756cb0982ae,43.6390437,-79.4760109,Ripley Ave / Ormskirk Ave,2024-08-03T19:09:00.650000Z,Ripley Ave / Ormskirk Ave,0.0,0,True,1722711995,19,"['key', 'transitcard', 'creditcard', 'phone']",True,1,1,23,7517,M6S 3N9
8,4,0ebd7e4e7c35126cda830c1c67bb3241,43.6486599,-79.4376413,St Clarens Ave / Shirley St,2024-08-03T19:09:02.404000Z,St Clarens Ave / Shirley Ave,0.0,0,True,1722712101,4,"['key', 'transitcard', 'creditcard', 'phone']",True,1,1,15,7520,M6K 1S9
19,2,f926e2b4fe4ff841a24b2ac4962e62bd,43.6702236,-79.4360232,Bartlett Parkette,2024-08-03T19:09:02.436000Z,Bartlett Parkette,0.0,1,True,1722712111,1,"['key', 'transitcard', 'creditcard', 'phone']",True,1,1,23,7526,M6H 2B8
16,2,791f66f190e1848c7eeeaf8b937e304f,43.6752732,-79.3778458,Sherbourne St N / Elm Ave,2024-08-03T19:09:04.909000Z,Sherbourne St N / Elm Ave,0.0,0,True,1722712112,2,"['key', 'transitcard', 'creditcard', 'phone']",True,1,1,22,7530,M4W 2T4
7,7,068f5330e49bd7236864c7cbf904813f,43.645469,-79.411084,Walnut Ave / Queen St W,2024-08-03T19:09:04.831000Z,Walnut Ave / Queen St W,0.0,0,True,1722711974,7,"['key', 'transitcard', 'creditcard', 'phone']",True,1,1,15,7534,M6J 1G4
17,1,36c244827ed3bd3ee314ab1d2781db2a,43.6882821,-79.4253856,Vaughan Rd /Wychwood Ave,2024-08-03T19:09:04.301000Z,Vaughan Rd /Wychwood Ave,0.0,0,True,1722711967,1,"['key', 'transitcard', 'creditcard', 'phone']",True,1,1,19,7538,M6C 2N5
14,6,91b75f5884eca61cded2a3da80a6dc2b,43.651603,-79.408346,Palmerston Ave / Dundas St W,2024-08-03T19:09:04.853000Z,Palmerston Ave / Dundas St W,0.0,0,True,1722712042,6,"['key', 'transitcard', 'creditcard', 'phone']",True,1,1,23,7536,M6J 1V2
18,1,e6151e077a7d8141f6ae96e6223d12e9,43.670206,-79.402643,541 Huron St - SMART,2024-08-03T19:09:05.433000Z,541 Huron St,0.0,1,True,1722712117,0,"['key', 'transitcard', 'phone']",False,1,1,20,7531,M5R 2R6
5,7,03b565f085260e768988cd216fbeeef4,43.661559,-79.413845,Euclid Ave / Herrick St - SMART,2024-08-03T19:09:04.841000Z,Euclid Ave / Herrick St,0.0,3,True,1722712017,4,"['key', 'transitcard', 'phone']",False,1,1,16,7537,M6G 2T4
10,5,34a94fc072487f4615b041d2b7a6c659,43.6560758,-79.393259,Baldwin St / Henry St,2024-08-03T19:09:07.561000Z,Baldwin St / Henry St,0.0,0,True,1722712057,5,"['key', 'transitcard', 'creditcard', 'phone']",True,1,1,15,7545,M5T 1L2
9,6,2b2e280f715656fb630b59ec9a6d1e0c,43.6580442,-79.3927404,Orde St / McCaul St,2024-08-03T19:09:03.175000Z,Orde St / McCaul St,0.0,4,True,1722712045,2,"['key', 'transitcard', 'creditcard', 'phone']",True,1,1,15,7547,M5T 1W6
13,5,026bf7c2104a659ef0392f1c22bc6e17,43.6568254,-79.3966159,Ross St / Cecil St - SMART,2024-08-03T19:09:01.759000Z,Ross St / Cecil St,0.0,0,True,1722712102,5,"['key', 'transitcard', 'phone']",False,1,1,18,7546,M5T 1N3
0,19,b7461d8effda846e2f78dfbee059c433,43.5927419,-79.54033009999999,Lake Shore Blvd W / Thirty Ninth Street,2024-08-03T19:09:01.371000Z,Lake Shore Blvd W / Thirty Ninth Street,0.0,2,True,1722712103,17,"['key', 'transitcard', 'creditcard', 'phone']",True,1,1,19,7552,M8W 1P9
10,8,f1bad47f1bca16159267c0ad3e50fb1a,43.597082,-79.522768,Lake Shore Blvd W / Twenty Fourth St,2024-08-03T19:09:01.360000Z,Lake Shore Blvd W / Twenty Fourth St,0.0,0,True,1722712108,8,"['key', 'transitcard', 'creditcard', 'phone']",True,1,1,19,7553,M8V 1M1
21,9,4d9f7ef78ba9859e04d259c1567d1d61,43.6171635,-79.4971065,Windsor St / Newcastle St,2024-08-03T19:09:01.399000Z,Windsor St / Newcastle St,0.0,1,True,1722712061,8,"['key', 'transitcard', 'creditcard', 'phone']",True,1,1,31,7556,M8Y 0A6
10,9,1d5a56319adf364532940f86be71ce4b,43.612063,-79.496573,Royal York Rd / Mimico Ave,2024-08-03T19:09:01.403000Z,Royal York Rd / Mimico Ave,0.0,1,True,1722712129,8,"['key', 'transitcard', 'creditcard', 'phone']",True,1,1,20,7555,M8V 1R6
3,15,0deaf45500eb93eeacff86adaafeb180,43.63732,-79.489083,Berry Rd / Bell Manor Dr,2024-08-03T19:09:07.680000Z,Berry Rd / Bell Manor Dr,0.0,0,True,1722711982,15,"['key', 'transitcard', 'creditcard', 'phone']",True,1,1,19,7558,M8Y 1W5
11,15,4e5712234feb60f46fff461ab136e147,43.5961692,-79.5160575,Humber College (Lakeshore Campus),2024-08-03T19:09:01.410000Z,Humber College,0.0,0,True,1722712108,15,"['key', 'transitcard', 'creditcard', 'phone']",True,1,1,27,7554,M8V 4B6
13,14,8b49ce875b451df6dbe4fb4667acb3bd,43.613606,-79.4883535,Amos Waites Park,2024-08-03T19:09:00.656000Z,Amos Waites Park,0.0,1,True,1722711971,13,"['key', 'transitcard', 'creditcard', 'phone']",True,1,1,27,7515,M8V 1C5
23,0,d9d0c97c8f65e3fb4ebcd464a11f5522,43.664665,-79.489385,Priscilla Ave / Dundas St W,2024-08-03T19:09:03.423000Z,Priscilla  Ave / Dundas St W,0.0,0,True,1722712105,0,"['key', 'transitcard', 'creditcard', 'phone']",True,1,1,23,7562,M6S 2S1
21,0,27b5be1cbbce21764b224e820c7f888c,43.665523,-79.484892,Durie St / Dundas St W,2024-08-03T19:09:03.406000Z,Durie St / Dundas St W,0.0,0,True,1722712066,0,"['key', 'transitcard', 'creditcard', 'phone']",True,1,1,23,7564,M6S 2S1
7,12,600672c7f313e01de8bab00cbee9e7f4,43.668496,-79.485426,St Clair Ave W / Castleton Ave,2024-08-03T19:09:03.433000Z,St Clair Ave W / Castleton Ave,0.0,11,True,1722711982,1,"['key', 'transitcard', 'creditcard', 'phone']",True,1,1,19,7563,M6N 4Z5
25,0,50dc0fcbc5a62a2cc676ada21ede905c,43.698841,-79.519472,Weston Lions Park,2024-08-03T19:09:03.396000Z,Weston Lions Park,0.0,0,True,1722712112,0,"['key', 'transitcard', 'creditcard', 'phone']",True,1,1,27,7567,M9N 1H7
15,0,6d6c301acbd12264042475dfd0e0e1e3,43.658574,-79.487246,Annette St / Jane St,2024-08-03T19:09:03.440000Z,Annette St / Jane St,0.0,0,True,1722712077,0,"['key', 'transitcard', 'creditcard', 'phone']",True,1,1,15,7561,M6S 3Z5
15,10,1e5bc0c0a2797265956ee948d6dcd49d,43.63985,-79.43703,Jameson Ave / Queen St W,2024-08-03T19:09:04.615000Z,Jameson Ave / Queen St W,0.0,1,True,1722712019,9,"['key', 'transitcard', 'creditcard', 'phone']",True,1,1,26,7568,M6K 1M3
4,11,e933ad7ff4aae2c390d9f79c1043d657,43.665076,-79.341509,Carlaw Ave / Dundas St E,2024-08-03T19:09:05.787000Z,Carlaw Ave / Dundas St E,0.0,0,True,1722712030,11,"['key', 'transitcard', 'creditcard', 'phone']",True,1,1,17,7570,M4M 2T1
1,38,c1704a7eebf0bff8016166d14fe130bd,43.6323994,-79.40978179999999,Toronto Inukshuk Park,2024-08-03T19:09:04.625000Z,Toronto Inukshuk Park,0.0,6,True,1722712007,32,"['key', 'transitcard', 'creditcard', 'phone']",True,1,1,44,7569,M6K 3C3
15,0,5bed66406f7431f8d4d8542d107225ea,43.6935477,-79.3301658,Cosburn Ave / Durant Ave,2024-08-03T19:09:01.690000Z,Cosburn Ave / Durant Ave,0.0,0,True,1722712059,0,"['key', 'transitcard', 'creditcard', 'phone']",True,1,1,15,7572,M4J 3R7
10,5,124ed44b13876f8019e356d76ba645ee,43.6438036,-79.4770327,Swansea Community Centre,2024-08-03T19:09:07.668000Z,Swansea Community Centre,0.0,0,True,1722712007,5,"['key', 'transitcard', 'creditcard', 'phone']",True,1,1,15,7559,M6S 4Z9
16,4,12481528bb8d296c8bc4014306f36afd,43.65246,-79.413528,Bellwoods Ave / Treford Pl - SMART,2024-08-03T19:09:07.500000Z,Bellwoods Ave / Treford Pl,0.0,0,True,1722712038,4,"['key', 'transitcard', 'phone']",False,1,1,20,7541,M6J 2R3
9,3,5282337e262f025cee74afaf2659b223,43.6548521,-79.35397680000001,Bayview Ave / Lawren Harris Square,2024-08-03T19:09:05.805000Z,207 Eastern Avenue,0.0,0,True,1722711987,3,"['key', 'transitcard', 'creditcard', 'phone']",True,1,1,15,7575,M5A 1H7
6,15,125e730a6da5714af8567ae352485337,43.630874,-79.482407,The Queensway / High St,2024-08-03T19:09:01.393000Z,The Queensway / High St,0.0,0,True,1722711970,15,"['key', 'transitcard', 'creditcard', 'phone']",True,1,1,22,7557,M8Y 1H6
9,6,0b153cb4fe7873b109e3068cf99dbf74,43.6704403,-79.45328549999999,Symington Ave / Davenport Rd,2024-08-03T19:09:02.486000Z,Symington Ave / Davenport Rd,0.0,3,True,1722712061,3,"['key', 'transitcard', 'creditcard', 'phone']",True,1,1,15,7529,M6N 1B9
7,13,fb3867774f8ac943a838fb13a41bd1b6,43.6535,-79.354068,Front St E / Bayview Avenue,2024-08-03T19:09:05.819000Z,Front St E / Bayview Avenue,0.0,1,True,1722712085,12,"['key', 'transitcard', 'creditcard', 'phone']",True,1,1,22,7576,M5A 1H7
19,8,8c4531a1d91e5583aff9759a5aedb46d,43.6617908,-79.361515,Oak St / Sumach St,2024-08-03T19:09:05.816000Z,Oak St / Sumach St,0.0,0,True,1722711984,8,"['key', 'transitcard', 'creditcard', 'phone']",True,1,1,27,7577,M5A 2H4
45,1,4bb6659976fc4aaf5a141c488a405a00,43.666051,-79.374161,439 Sherbourne St,2024-08-03T19:09:07.353000Z,439 Sherbourne St,0.0,0,True,1722711962,1,"['key', 'transitcard', 'creditcard', 'phone']",True,1,1,47,7549,M4X 1K6
15,3,f04359bb2878aa6d672474276e5017e4,43.7005976,-79.397345,Glebe Rd W / Yonge St,2024-08-03T19:09:01.229000Z,Glebe Rd / Yonge St,0.0,0,True,1722712103,3,"['key', 'transitcard', 'creditcard', 'phone']",True,1,1,18,7579,M4S 1Z7
9,6,9447917367c25ac832d404c1a4696615,43.7029672,-79.3979073,Hillsdale Ave W / Yonge St,2024-08-03T19:09:08.330000Z,Hillsdale Ave W / Yonge St,0.0,0,True,1722711958,6,"['key', 'transitcard', 'creditcard', 'phone']",True,1,1,15,7580,M4S 2A5
18,1,0b85c7861c4c48a4cd4fe140c913da57,43.68871,-79.39264,Alvin Ave / St Clair Ave E,2024-08-03T19:09:07.462000Z,Alvin Ave / St Clair Ave E,0.0,1,True,1722712086,0,"['key', 'transitcard', 'creditcard', 'phone']",True,1,1,19,7540,M4T 1M9
20,0,f0ef11b3bf1f1a2ab5d7a556fde038f6,43.6834703,-79.5108942,Eglinton Ave W / Scarlett Rd,2024-08-03T19:09:08.356000Z,Eglinton Ave W / Scarlett Rd,0.0,0,True,1722711982,0,"['key', 'transitcard', 'creditcard', 'phone']",True,1,1,22,7583,M9A
26,0,e228eced48bdb1f81b6b38456fdcad39,43.7696262,-79.5025943,The Pond Rd / Sentinel Rd,2024-08-03T19:09:08.286000Z,The Pond Rd / Sentinel Rd,0.0,0,True,1722712026,0,"['key', 'transitcard', 'creditcard', 'phone']",True,1,1,27,7584,M3J 2S5
26,0,71bf1ff10731929ec44b9dcce72edba6,43.7641485,-79.5012809,Sentinel Rd / Finch Corridor Trail,2024-08-03T19:09:08.292000Z,Sentinel Rd / Finch Hydro Corridor,0.0,0,True,1722711975,0,"['key', 'transitcard', 'creditcard', 'phone']",True,1,1,27,7585,M3J 1V6
23,0,6a4d3e7625cc41d49674986b994fc5e1,43.76521,-79.491281,Finch West Subway Station,2024-08-03T19:09:08.313000Z,Finch West Subway Station,0.0,0,True,1722712078,0,"['key', 'transitcard', 'creditcard', 'phone']",True,1,1,23,7586,M3J 2W1
17,1,bf413030081fe6f86c21b6412f4e4e1a,43.7724019,-79.4675395,Dufferin St / Finch Corridor Trail,2024-08-03T19:09:08.317000Z,Dufferin St / Finch Hydro Recreational Trail,0.0,0,True,1722712045,1,"['key', 'transitcard', 'creditcard', 'phone']",True,1,1,19,7587,M3H 5T3
19,0,cfcbfa258711beff217aa9d929a3a3ea,43.7781116,-79.467963,G Ross Lord Park,2024-08-03T19:09:08.272000Z,G Ross Lord Park,0.0,0,True,1722712100,0,"['key', 'transitcard', 'creditcard', 'phone']",True,1,1,19,7588,M3H 5T4
21,2,7a86196b811f1b13212052f5cd37e692,43.707049,-79.40966,Elwood Blvd / Avenue Rd,2024-08-03T19:09:05.228000Z,Elwood Blvd / Avenue Rd,0.0,1,True,1722712033,1,"['key', 'transitcard', 'creditcard', 'phone']",True,1,1,23,7591,M5N 3B1
18,8,2c429e9e841e213f875d2116cfab30e9,43.711751,-79.378615,Roehampton Ave / Bayview Ave,2024-08-03T19:09:02.121000Z,Roehampton St / Bayview Ave,0.0,0,True,1722712118,8,"['key', 'transitcard', 'creditcard', 'phone']",True,1,1,27,7593,M4P 1S7
13,2,482006b8f83e7802372448cd4dbd463d,43.732975,-79.40401,Teddington Park Ave,2024-08-03T19:09:05.132000Z,Teddington Park Ave,0.0,0,True,1722712037,2,"['key', 'transitcard', 'creditcard', 'phone']",True,1,1,15,7598,M4N 2M8
7,13,b3ac9ac4dba9aff36e24ba60b6171308,43.660274,-79.398049,Ursula Franklin St / Huron St - SMART,2024-08-03T19:09:06.733000Z,Ursula Franklin St / Huron St,0.0,1,True,1722711954,12,"['key', 'transitcard', 'phone']",False,1,1,20,7600,M5S 2S2
6,13,7978548b201c5c5ab2421bc2906bc446,43.699281,-79.318802,Woodbine Ave / O'Connor Dr,2024-08-03T19:09:06.720000Z,Woodbine Ave / O'Connor Dr,0.0,11,True,1722712060,2,"['key', 'transitcard', 'creditcard', 'phone']",True,1,1,19,7602,M4C 4G9
8,11,65aefd1c1484ebd15a7827285971734e,43.696631,-79.297436,Dawes Rd / Taylor Creek Trl,2024-08-03T19:09:06.692000Z,Dawes Rd / Taylor Creek Trl,0.0,3,True,1722712109,8,"['key', 'transitcard', 'creditcard', 'phone']",True,1,1,19,7606,M4C 5L3
5,12,812af6af42e905fac0cafcf05146f3ba,43.6765897,-79.3163022,Fairmount Park,2024-08-03T19:09:06.674000Z,Fairmount Park,0.0,0,True,1722712126,12,"['key', 'transitcard', 'creditcard', 'phone']",True,1,1,19,7607,A1a1a1
9,8,165388972f43146138b4f5180eead75a,43.650745,-79.383633,Richmond St W / York St,2024-08-03T19:09:05.112000Z,Richmond St W / York St,0.0,0,True,1722712088,8,"['key', 'transitcard', 'creditcard', 'phone']",True,1,1,17,7599,M5H 3K6
18,7,3b0ffacf6f626924fb61b0d6d578561a,43.720233,-79.362092,Sunnybrook Park,2024-08-03T19:09:06.657000Z,Sunnybrook Park,0.0,1,True,1722712128,6,"['key', 'transitcard', 'creditcard', 'phone']",True,1,1,27,7609,M3C 3L7
11,8,3dccd3e0582902632ace3ada9481abb0,43.6926825,-79.441042,Vaughan Rd / Oakwood Ave,2024-08-03T19:09:04.002000Z,Vaughan Rd / Oakwood Ave,0.0,8,True,1722712116,0,"['key', 'transitcard', 'creditcard', 'phone']",True,1,1,19,7618,A1a1a1
13,1,cca065ea85fe108c99c68759adf859ee,43.7041957,-79.4094472,Braemar Ave / Eglinton Ave W,2024-08-03T19:09:04.009000Z,Braemar Ave / Eglinton Ave W,0.0,1,True,1722711957,0,"['key', 'transitcard', 'creditcard', 'phone']",True,1,1,14,7619,A1a1a1
5,16,e4d76b13daa3859403326b474684159d,43.5880774,-79.5432067,Marie Curtis Park,2024-08-03T19:09:02.844000Z,Marie Curtis Park,0.0,0,True,1722712029,16,"['key', 'transitcard', 'creditcard', 'phone']",True,1,1,23,7622,M8W 3P3
6,2,4a491c94c9b46d3b7927b72a3bad0ab6,43.754978,-79.1971289,Guildwood GO Station (South),2024-08-03T19:09:02.764000Z,Guildwood GO Station (South),0.0,0,True,1722712080,2,"['key', 'transitcard', 'creditcard', 'phone']",True,1,1,11,7624,M1E 2M3
18,2,0c49d15e80cceca5feb5a2bc84ddc2f5,43.6856,-79.3718,Chorley Park - SMART,2024-08-03T19:09:07.302000Z,Chorley Park,0.0,0,True,1722711997,2,"['key', 'transitcard', 'phone']",False,1,1,20,7277,
28,11,937a6d6b325ab59d5e0047f4b8eeb0ac,43.637764,-79.345359,Cherry Beach,2024-08-03T19:09:01.185000Z,Cherry Beach,0.0,0,True,1722711992,11,"['key', 'transitcard', 'creditcard', 'phone']",True,1,1,48,7344,
23,10,30c56fdec4d36ab0124297d6f0101490,43.6629228,-79.4018451,Spadina Ave / Harbord St - SMART,2024-08-03T19:09:08.092000Z,Spadina Ave / Harbord St,0.0,0,True,1722712115,10,"['key', 'transitcard', 'phone']",False,1,1,36,7285,
4,12,4a1203492305451d3154777c392532f3,43.660296,-79.397107,Ursula Franklin St / St. George St - SMART,2024-08-03T19:09:02.272000Z,Ursula Franklin St / St. George St,0.0,1,True,1722712082,11,"['key', 'transitcard', 'phone']",False,1,1,16,7250,
6,16,07c0bbd2b5c108bacb3a32250af2a076,43.7805505,-79.1301203,Rouge Hill GO Station,2024-08-03T19:09:02.799000Z,Rouge Hill GO Station,0.0,0,True,1722712130,16,"['key', 'transitcard', 'creditcard', 'phone']",True,1,1,25,7626,M1C 5G4
12,7,a70fe5dd2fa91d6c13d66b5415e9740e,43.7777114,-79.1659711,Colonel Danforth Park,2024-08-03T19:09:04.037000Z,Colonel Danforth Park,0.0,0,True,1722712009,7,"['key', 'transitcard', 'creditcard', 'phone']",True,1,1,19,7615,M1C 1P8
18,4,254006acb0d0299f535d3723f656ae67,43.779353,-79.193023,Morningside Park (Highland Creek Trail),2024-08-03T19:09:04.033000Z,Morningside Park (Highland Creek Trail),0.0,0,True,1722711994,4,"['key', 'transitcard', 'creditcard', 'phone']",True,1,1,23,7614,M1E 3E8
10,8,93699b431ac46c9e98b3b1c74cda8e95,43.747854,-79.199327,Livingston Rd / Guildwood Pkwy,2024-08-03T19:09:04.091000Z,Livingston Rd / Guildwood Pkwy,0.0,0,True,1722712062,8,"['key', 'transitcard', 'creditcard', 'phone']",True,1,1,19,7612,M1E 1P4
14,5,a3860ef7a1996bfe83863f7086adb77b,43.7561681,-79.2026694,Livingston Rd (Highland Creek Trail),2024-08-03T19:09:04.102000Z,Livingston Rd (Highland Creek Trail),0.0,0,True,1722712044,5,"['key', 'transitcard', 'creditcard', 'phone']",True,1,1,19,7613,M1E 1M4
9,13,8bd81a9fcb43f04a9b8f80996312e61e,43.6002896,-79.5108692,Twelfth St / Thirteenth St,2024-08-03T19:09:00.848000Z,Twelfth St / Thirteenth St,0.0,1,True,1722711965,12,"['key', 'transitcard', 'creditcard', 'phone']",True,1,1,23,7630,M8V 4E2
10,6,c5db2e6382e20bec3e404aaf7ea89ccb,43.6632257,-79.4397052,Wallace Ave / Pauline Ave,2024-08-03T19:09:02.353000Z,Wallace Ave / Pauline Ave,0.0,0,True,1722712060,6,"['key', 'transitcard', 'creditcard', 'phone']",True,1,1,17,7522,M6H 1T5
12,3,d747893c66003f215b8502161eb40f5e,43.680095,-79.291714,Kingston Rd / Beech Ave,2024-08-03T19:09:04.073000Z,Kingston Rd / Beech Ave,0.0,0,True,1722712021,3,"['key', 'transitcard', 'creditcard', 'phone']",True,1,1,15,7610,M4E 1R9
11,7,0153756b9e136b96e730aaa2f048227f,43.691468,-79.288619,Victoria Park Ave / Danforth Ave,2024-08-03T19:09:04.084000Z,Victoria Park Ave / Danforth Ave,0.0,2,True,1722712077,5,"['key', 'transitcard', 'creditcard', 'phone']",True,1,1,19,7611,M4C 1N2
27,13,ded51d399ed59c94c0a464202fc09fe0,43.645609,-79.380386,Union Station,2024-08-03T19:09:02.534000Z,Union Station,0.0,2,True,1722712049,11,"['key', 'transitcard', 'creditcard', 'phone']",True,1,1,43,7033,
21,0,b5012608da25a66be2fe79465186ff62,43.6591666666667,-79.3855555555556,Hayter St / La Plante Ave,2024-08-03T19:09:07.842000Z,Hayter St / Laplante Ave,0.0,0,True,1722711994,0,"['key', 'transitcard', 'creditcard', 'phone']",True,1,1,22,7162,
28,4,033dd75f330fec10400341177c68036e,43.658777,-79.369596,Seaton St / Dundas St E - SMART,2024-08-03T19:09:03.750000Z,Seaton St / Dundas St E,0.0,1,True,1722712102,3,"['key', 'transitcard', 'phone']",False,1,1,32,7109,
9,5,080c6cc1f827d976fd75f9ccf53db95c,43.6625395,-79.5030161,Lundy Ave / Étienne Brûlé Park,2024-08-03T19:09:02.921000Z,Lundy Ave / Etienne Brule Park,0.0,0,True,1722712115,5,"['key', 'transitcard', 'creditcard', 'phone']",True,1,1,15,7629,M6S 2R5
16,0,5f02574f10f8ec2871df512546cf6f65,43.7004017,-79.4275305,Chiltern Hill Rd / Eglinton Ave W,2024-08-03T19:09:00.831000Z,Chiltern Hill Rd / Eglinton Ave W,0.0,0,True,1722712099,0,"['key', 'transitcard', 'creditcard', 'phone']",True,1,1,17,7632,M6C 2C1
12,1,3e8872d5357f08ebd702863ab04e913e,43.77953,-79.45233,Torresdale Ave / Antibes Dr,2024-08-03T19:09:08.281000Z,Torresdale Ave / Antibes Dr,0.0,0,True,1722712090,1,"['key', 'transitcard', 'creditcard', 'phone']",True,1,1,14,7589,M2R 3T2
23,0,126121fbcccd20a50c8bd94206c7d81b,43.7774374,-79.4447096,Esther Shiner Stadium,2024-08-03T19:09:05.270000Z,Ester Shiner Stadium,0.0,0,True,1722711990,0,"['key', 'transitcard', 'creditcard', 'phone']",True,1,1,23,7590,M2R 1Y6
2,10,a2e02c044b1d003adb0993f8da78ee58,43.6637403,-79.39806449999999,St. George St / Hoskin Ave,2024-08-03T19:09:04.146000Z,St. George St / Hoskin Ave,0.0,1,True,1722711980,9,"['key', 'transitcard', 'creditcard', 'phone']",True,1,1,15,7190,M5S 2E5
11,2,70222e00b684e247dd3f982cfb268e2e,43.707045,-79.375437,Fleming Cres / Bayview Ave,2024-08-03T19:09:02.109000Z,Fleming Cres / Bayview Ave,0.0,0,True,1722712035,2,"['key', 'transitcard', 'creditcard', 'phone']",True,1,1,15,7594,M4G 3C1
16,1,af8ef901117705bf69e591e81d28a15f,43.6495789,-79.3762096,King St E / Victoria St,2024-08-03T19:09:06.087000Z,King St E / Victoria St,0.0,0,True,1722711972,1,"['key', 'transitcard', 'creditcard', 'phone']",True,1,1,19,7333,A1a1a1
15,0,9ee0fa9e2c3afc338a74a6b49af02e41,43.690903,-79.4375028,Alameda Ave / Vaughan Rd - SMART,2024-08-03T19:09:08.346000Z,Amaleda Ave / Vaughan Rd,0.0,0,True,1722711998,0,"['key', 'transitcard', 'phone']",False,1,1,16,7582,M6C 2R1
5,10,bcf5ea04f184984e5cbd8571527636ff,43.643253094827294,-79.41230469904167,Adelaide St W / Strachan Ave,2024-08-03T19:09:05.976000Z,Adelaide St W / Strachan Ave,0.0,0,True,1722712037,10,"['key', 'transitcard', 'creditcard', 'phone']",True,1,1,15,7473,M6J 2S7
0,16,9c10c5f861261da626f9707ada4e8e04,43.6029904,-79.4926867,Royal York Rd / Lake Shore Blvd W,2024-08-03T19:09:02.836000Z,Royal York Rd / Lake Shore Blvd W,0.0,0,True,1722712028,16,"['key', 'transitcard', 'creditcard', 'phone']",True,1,1,19,7623,M8V 1W3
13,0,48a626ef3a6cfbbccdaea283ce5901c6,43.6596299,-79.4799176,Runnymede Rd / Annette St,2024-08-03T19:09:00.900000Z,Runnymede Rd / Annette St,0.0,0,True,1722712108,0,"['key', 'transitcard', 'creditcard', 'phone']",True,1,1,15,7635,M6S 2Z6
6,7,57f2fc67a917b973ca7f31a994e0c63a,43.6608333,-79.43166666666667,Salem Ave / Bloor St W,2024-08-03T19:09:05.371000Z,Salem Ave / Bloor St W,0.0,1,True,1722712014,6,"['key', 'transitcard', 'creditcard', 'phone']",True,1,1,15,7156,
20,2,8ef3bc5ab6805d2c5411023f4318d778,43.66083333333333,-79.43583333333333,Dufferin St / Bloor St W,2024-08-03T19:09:05.365000Z,Dufferin St / Bloor St,0.0,0,True,1722712075,2,"['key', 'transitcard', 'creditcard', 'phone']",True,1,1,22,7157,
17,1,407c8fc47ef8f822af020375a4f7dc79,43.69933,-79.39199,Davisville Ave / Pailton Cres,2024-08-03T19:09:04.194000Z,Davisville Ave / Pailton Cres,0.0,0,True,1722712068,1,"['key', 'transitcard', 'creditcard', 'phone']",True,1,1,18,7539,M4S 1E8
8,4,3afcafcea065abef8dd2beafcb78c7bd,43.6653032,-79.4701178,High Park Ave / Dundas St W,2024-08-03T19:09:08.338000Z,345 High Park Ave,0.0,0,True,1722712102,4,"['key', 'transitcard', 'creditcard', 'phone']",True,1,1,15,7581,M6P 2S8
15,4,e6588e3838b256ab32f9b7db54be5a66,43.6162721,-79.4990363,Judson St / Royal York Rd,2024-08-03T19:09:00.858000Z,10 Judson St,0.0,1,True,1722712053,3,"['key', 'transitcard', 'creditcard', 'phone']",True,1,1,19,7637,M8Z 1A6
21,6,b29cba584424066f83f374b2c3fe1780,43.720645,-79.355474,Wilket Creek Park,2024-08-03T19:09:06.670000Z,Wilket Creek Park,0.0,0,True,1722712085,6,"['key', 'transitcard', 'creditcard', 'phone']",True,1,1,27,7608,M3C 2J7
15,0,87722dd793400f7a61a96a59b9133e4f,43.6641174,-79.4588522,Annette St / Dundas St W,2024-08-03T19:09:07.717000Z,2659 Dundas St W,0.0,0,True,1722712091,0,"['key', 'transitcard', 'creditcard', 'phone']",True,1,1,15,7641,M6P 1X9
8,5,d6d49f7d4ddb2cd466938a1b424c1412,43.6424558,-79.4296346,Noble St / Queen St W,2024-08-03T19:09:00.835000Z,1266 Queen St W,0.0,3,True,1722712093,2,"['key', 'transitcard', 'creditcard', 'phone']",True,1,1,15,7633,M6K 1L3
18,1,51987cd2ab0d05eeb2f79bcb596e348b,43.6954486,-79.4026176,Oriole Pkwy / Kilbarry Rd,2024-08-03T19:09:07.704000Z,80 Oriole Parkway,0.0,1,True,1722712015,0,"['key', 'transitcard', 'creditcard', 'phone']",True,1,1,19,7643,M5P 2G8
10,4,b20ef84c05107095581cdd50b2bb4a2c,43.6850809,-79.3149901,East Lynn Ave / Danforth Ave,2024-08-03T19:09:07.770000Z,108 East Lynn Avenue,0.0,1,True,1722711970,3,"['key', 'transitcard', 'creditcard', 'phone']",True,1,1,15,7644,M4C 1J7
19,12,c4a01864ecb66e9b1ee3023d3205a281,43.6800218,-79.3405681,Langford Ave / Danforth Ave - SMART,2024-08-03T19:09:05.158000Z,840 Danforth Ave,0.0,1,True,1722711982,11,"['key', 'transitcard', 'phone']",False,1,1,32,7596,M4J 1L7
8,8,3c7236f4a281b569b57f40c0bf29c4ca,43.7842419,-79.1849889,University of Toronto Scarborough,2024-08-03T19:09:07.762000Z,1295-1307 Military Trail,0.0,0,True,1722711979,8,"['key', 'transitcard', 'creditcard', 'phone']",True,1,1,16,7645,M1C 1A5
6,8,df0ee6e75eb32441818a11d990fa844a,43.6451308,-79.36536439999999,190 Queens Quay E,2024-08-03T19:09:05.481000Z,Lake Shore Blvd E / Parliament St,0.0,0,True,1722712115,8,"['key', 'transitcard', 'creditcard', 'phone']",True,1,1,15,7291,M5A 1B6
12,5,9703f67f16a349591949e76da3714b61,43.65637299999999,-79.38781039999999,Elm St/ University Ave (East Side),2024-08-03T19:09:07.738000Z,117 Elm Street,0.0,0,True,1722711983,5,"['key', 'transitcard', 'creditcard', 'phone']",True,1,1,17,7647,M5G 1X8
6,11,b1685246ce6cfe5b9d621a1991c3cedb,43.778015,-79.131911,Waterfront Trail (Rouge Hill),2024-08-03T19:09:04.045000Z,Waterfront Trail (Rouge Hill),0.0,0,True,1722712017,11,"['key', 'transitcard', 'creditcard', 'phone']",True,1,1,19,7616,M1C 5G5
13,5,c0538b0581a59e1e7321a382b5ab17ab,43.672079,-79.470171,St Clair Ave W / Gunns Rd,2024-08-03T19:09:03.411000Z,St Clair Ave W / Gunns Rd,0.0,5,True,1722712029,0,"['key', 'transitcard', 'creditcard', 'phone']",True,1,1,23,7565,M6N 4X9
13,6,052763ac927bce9197aa6381f508576f,43.690237,-79.350119,Pape Ave / Gamble Ave,2024-08-03T19:09:01.225000Z,Pape Ave / Gamble Ave,0.0,0,True,1722711972,6,"['key', 'transitcard', 'creditcard', 'phone']",True,1,1,19,7348,
9,9,0faf9e7c7d5403b8f7dc7574fa6d0c6e,43.70942,-79.39139,Roehampton Ave / Mount Pleasant Rd,2024-08-03T19:09:03.536000Z,Roehampton Ave / Mount Pleasant Rd - SMART,0.0,0,True,1722712020,9,"['key', 'transitcard', 'creditcard', 'phone']",True,1,1,18,7404,M4P 1R6
12,2,f3aa2a6bb24e5012b030c6810cf39964,43.671389,-79.382919,Church St / Bloor St E,2024-08-03T19:09:02.544000Z,Church St / Bloor St E,0.0,0,True,1722712105,2,"['key', 'transitcard', 'creditcard', 'phone']",True,1,1,15,7034,
23,0,6fcf6974fe1a08b20ab7f70d70da6cb0,43.671561,-79.38117,200 Bloor St E,2024-08-03T19:09:06.109000Z,200 Bloor St. E.,0.0,0,True,1722712127,0,"['key', 'transitcard', 'creditcard', 'phone']",True,1,1,23,7332,
14,0,fb2618cee3456166ccc52c3ceeae13c6,43.693256,-79.383238,Moore Park,2024-08-03T19:09:02.104000Z,Moore Park,0.0,0,True,1722712047,0,"['key', 'transitcard', 'creditcard', 'phone']",True,1,1,15,7595,M4T 2H3
5,2,e473bffc39f79fdd42e27583ccbe0709,43.65412449999999,-79.4636388,Bloor St W / Pacific Ave,2024-08-03T19:09:05.212000Z,3 Pacific Avenue,0.0,0,True,1722712113,2,"['key', 'transitcard', 'creditcard', 'phone']",True,1,1,7,7654,M6P 3K6
9,6,3d71c9ff5bcbaad794a49115e11786e3,43.680207,-79.339243,Danforth Ave / Dewhurst Blvd,2024-08-03T19:09:06.816000Z,896 Danforth Avenue,0.0,0,True,1722712115,6,"['key', 'transitcard', 'creditcard', 'phone']",True,1,1,15,7655,M4J 1L9
4,5,fea3f9dfbcc18225728f10913c5d3d5b,43.6589882,-79.438715,Bloor St W / Brock Ave,2024-08-03T19:09:05.237000Z,Bloor St W / Brock Av,0.0,1,True,1722712002,4,"['key', 'transitcard', 'creditcard', 'phone']",True,1,1,10,7656,M6H 1M9
16,0,f3a880cb5277285662d2d68f5523488d,43.6741219,-79.4352208,Davenport Rd / Dovercourt Rd - SMART,2024-08-03T19:09:03.618000Z,Davenport Rd / Oakwood Rd - SMART,0.0,0,True,1722712114,0,"['key', 'transitcard', 'phone']",False,1,1,16,7327,M6H 2H1
10,7,844d02b2b7dfdabf7bd044c3edf050d5,43.6469928,-79.3706665,1 Market St - SMART,2024-08-03T19:09:05.252000Z,1 Market St,0.0,1,True,1722711996,6,"['key', 'transitcard', 'creditcard', 'phone']",True,1,1,20,7657,M5E 1N1
6,12,3d38244751d3c44617f0066466a3bc7d,43.683884,-79.36647,Brick Works,2024-08-03T19:09:06.730000Z,Brick Works,0.0,1,True,1722711982,11,"['key', 'transitcard', 'creditcard', 'phone']",True,1,1,25,7601,M4W
21,2,2b4c28b78247a24037bcff2ad8fcc605,43.6477785,-79.3847928,University Ave / King St W - SMART,2024-08-03T19:09:08.094000Z,University Ave / King St W,0.0,0,True,1722711984,2,"['key', 'transitcard', 'phone']",False,1,1,24,7284,M5H 1J9
10,9,9d7e8386839f9d834777d1cf0a8482c1,43.6856128,-79.31168269999999,Amroth Ave / Danforth Ave,2024-08-03T19:09:06.956000Z,Amroth Ave / Danforth Ave,0.0,3,True,1722712082,6,"['key', 'transitcard', 'creditcard', 'phone']",True,1,1,19,7659,M4C 1K1
11,0,10722d0c5054c529a0d71f9eb2c89f92,43.681944,-79.390556,Summerhill Subway Station,2024-08-03T19:09:02.592000Z,Summerhill Station,0.0,0,True,1722712005,0,"['key', 'transitcard', 'creditcard', 'phone']",True,1,1,11,7133,
16,3,b1c628d5509021c582f104bc3089e514,43.6393107,-79.4408141,Beaty Ave / Queen St W,2024-08-03T19:09:03.773000Z,85 Beaty Avenue,0.0,0,True,1722712019,3,"['key', 'transitcard', 'creditcard', 'phone']",True,1,1,19,7662,M6K 3B3
13,7,f889b35bb8077eaa77f35bed4d524e89,43.68306889999999,-79.279682,Blantyre Park,2024-08-03T19:09:03.818000Z,163 Fallingbrook Rd,0.0,6,True,1722712017,1,"['key', 'transitcard', 'creditcard', 'phone']",True,1,1,22,7068,M1N 1N3
6,8,7e8db6cca9980f9b6daf293197f25fc4,43.6626628,-79.3323698,Queen St E / Rushbrooke Ave,2024-08-03T19:09:02.320000Z,Queen St E / Rushbrooke Ave,0.0,0,True,1722712078,8,"['key', 'transitcard', 'creditcard', 'phone']",True,1,1,15,7258,M4M 1L5
11,2,34ec939e3772ab6f8f9be4ae0c98f3a2,43.681114,-79.3373885,Donlands Subway Station,2024-08-03T19:09:07.324000Z,Donlands Station,0.0,1,True,1722712110,1,"['key', 'transitcard', 'creditcard', 'phone']",True,1,1,15,7091,M4J 1P3
11,1,1cc9575bb686fa4a3eb7f4afbdea5073,43.638925,-79.4168659,Lynn Williams St / East Liberty St - SMART,2024-08-03T19:09:02.359000Z,Lynn Williams St / East Liberty St,0.0,0,True,1722712056,1,"['key', 'transitcard', 'creditcard', 'phone']",True,1,1,15,7523,M6K 3N6
10,4,cf43a77e34066db8b926a42b49814963,43.676216,-79.309395,Eastwood Rd / Woodbine Ave - SMART,2024-08-03T19:09:05.686000Z,Eastwood Rd / Woodbine Ave,0.0,0,True,1722712069,4,"['key', 'transitcard', 'phone']",False,1,1,14,7487,M4E 2H8
1,37,48f8a355073b35f8720761c96f77d86b,43.656633,-79.379625,285 Victoria St,2024-08-03T19:09:08.121000Z,26 Dundas Street East,0.0,0,True,1722712066,37,"['key', 'transitcard', 'creditcard', 'phone']",True,1,1,39,7660,M5B 2L6
5,11,c147f315755b1b1e79467fab3aaf3cb4,43.686962,-79.286864,Gerrard St E / Victoria Park Ave - SMART,2024-08-03T19:09:06.203000Z,Gerrard St E / Victoria Park Ave,0.0,2,True,1722712043,9,"['key', 'transitcard', 'phone']",False,1,1,16,7504,M4E 3T6
9,7,199a939521be6324c802d8d50ebeb4a8,43.718039,-79.371914,Kilgour Rd / Rumsey Rd,2024-08-03T19:09:03.759000Z,98 Glenvale Boulevard,0.0,1,True,1722712094,6,"['key', 'transitcard', 'creditcard', 'phone']",True,1,1,17,7663,M4G 2V9
4,8,04cadbe0f9b27f89f5fa6f6dbdea0883,43.672152,-79.39018,Bay St / Scollard St,2024-08-03T19:09:00.756000Z,Bay St / Scollard St,0.0,0,True,1722712020,8,"['key', 'transitcard', 'creditcard', 'phone']",True,1,1,15,7127,M5R 0A1
18,1,be90e51f9b29e31ae1d40a8dea028dcf,43.673019,-79.467994,Weston Rd / St Clair Ave W - SMART,2024-08-03T19:09:03.387000Z,Weston Rd / St Clair Ave W,0.0,0,True,1722712080,1,"['key', 'transitcard', 'creditcard', 'phone']",True,1,1,19,7566,M6N 3P4
8,6,4704fb679220b3879edfa3a853d55fbd,43.72268,-79.37644,Sunnybrook Health Centre - L Wing,2024-08-03T19:09:03.781000Z,60 Raab Blvd,0.0,1,True,1722712116,5,"['key', 'transitcard', 'creditcard', 'phone']",True,1,1,15,7664,M4N 1J7
19,7,8e40f60a48a909297b4114be18956d5c,43.6504218,-79.4407647,Dundas St W / St Helen's Ave - SMART,2024-08-03T19:09:03.799000Z,505 College Street,0.0,0,True,1722712131,7,"['key', 'transitcard', 'phone']",False,1,1,26,7666,M6K 1V6
16,1,2ad52acd0c231c654b488e03060224f2,43.68850459999999,-79.3940052,Yonge St / St Clair Ave,2024-08-03T19:09:07.706000Z,1451 Yonge Street,0.0,1,True,1722712074,0,"['key', 'transitcard', 'creditcard', 'phone']",True,1,1,19,7642,M4T 1Z2
26,1,1a0670e4e55fe4259c105c6803651334,43.641705,-79.393295,Spadina Ave / Blue Jays Way,2024-08-03T19:09:01.325000Z,Spadina Ave / Blue Jays Way,0.0,0,True,1722711992,1,"['key', 'transitcard', 'creditcard', 'phone']",True,1,1,30,7416,M5V 0L7
18,5,9d145fd59618d68dab06dba1c8900fe9,43.647663,-79.487583,Bloor St W / Riverside Dr,2024-08-03T19:09:00.853000Z,2511 bloor st w,0.0,0,True,1722712131,5,"['key', 'transitcard', 'creditcard', 'phone']",True,1,1,23,7636,M6S 5A6
6,5,ea3315c38d0d6b79d5e38457850a1cfc,43.720998,-79.377456,Sunnybrook Health Centre - S Wing,2024-08-03T19:09:03.776000Z,Test,0.0,4,True,1722712097,1,"['key', 'transitcard', 'creditcard', 'phone']",True,1,1,11,7665,M4N 3M5
18,0,238f97722fa9fb7a59373178433ee0bb,43.652327224103,-79.3882538196087,Simcoe St / Michael Sweet Ave,2024-08-03T19:09:02.588000Z,Simcoe St / Michael Sweet Ave,0.0,0,True,1722712074,0,"['key', 'transitcard', 'creditcard', 'phone']",True,1,1,19,7039,M5T3M3
5,6,bac1dcd28fcdff0438987edfef742154,43.6438602,-79.4227573,Queen St W / Dovercourt Rd,2024-08-03T19:09:04.157000Z,Queen St W / Dovercourt Rd,0.0,0,True,1722712122,6,"['key', 'transitcard', 'creditcard', 'phone']",True,1,1,11,7197,M6J 3C4
17,9,b5473ba8329a31e18dfbc5067cf61369,43.64920406876699,-79.49336334201408,King's Mill Park,2024-08-03T19:09:05.260000Z,2639 Bloor St W,0.0,1,True,1722712015,8,"['key', 'transitcard', 'creditcard', 'phone']",True,1,1,27,7658,M8X 1A3
9,5,2a56ebfe680276d40a591ef322457f70,43.6399714,-79.39940399999999,135 Queens Wharf Rd - SMART,2024-08-03T19:09:00.821000Z,135 Queens Warf,0.0,0,True,1722712019,5,"['key', 'transitcard', 'phone']",False,1,1,15,7639,M5V 0E4
18,0,fc6389e5eba6c99ed3c0185b65c9cb5c,43.68827060022711,-79.43937767081853,406 Oakwood Ave,2024-08-03T19:09:00.678000Z,"406 Oakwood Ave, York, ON M6E 2W3",0.0,0,True,1722712013,0,"['key', 'transitcard', 'creditcard', 'phone']",True,1,1,19,7519,L5C 1E4
18,6,3681db49ef2d337bfb035ab1ac33e2c2,43.6614605,-79.37894570000002,Granby St / Church St - SMART,2024-08-03T19:09:05.501000Z,Granby St / Church St -SMART,0.0,0,True,1722712079,6,"['key', 'transitcard', 'phone']",False,1,1,24,7292,M5B 1J1
6,14,d10b85cd917407519f2491252a022a01,43.69413548199171,-79.30058718775287,Lumsden Ave / Eastdale Ave,2024-08-03T19:09:06.698000Z,Lumsden Ave / Eastdale Ave,0.0,2,True,1722712098,12,"['key', 'transitcard', 'creditcard', 'phone']",True,1,1,20,7605,M4C 4Z9
22,0,2cf04264d349d318f68193444d9c5ad0,43.7254665,-79.40115449999999,Yonge St / Lawrence Ave E,2024-08-03T19:09:02.744000Z,24 Lawrence Ave East,0.0,0,True,1722712046,0,"['key', 'transitcard', 'creditcard', 'phone']",True,1,1,23,7625,M4N 1S1
10,25,b63112d639d75af6c2e5481df147cf77,43.7083577,-79.39886200000001,Yonge St / Orchard View Blvd,2024-08-03T19:09:02.013000Z,Roehampton Ave / Yonge St,0.0,0,True,1722712117,25,"['key', 'transitcard', 'creditcard', 'phone']",True,1,1,35,7381,M4P 2E6
